,addresses,build_status,category,flat_type,importance,latitude,lease_type,longitude,prices,sale_dates,subcategory
0,"Flat 14 Buchanan House, 7 Troubridge Square, London, E17 3GS",Newbuild,,Flat,,,Leasehold,,517275.0,2018-09-26,
1,"Flat 26 Buchanan House, 7 Troubridge Square, London, E17 3GS",Newbuild,,Flat,,,Leasehold,,527175.0,2018-09-26,
2,"91 Dames Road, London, E7 0DW",Non-Newbuild,highway,Terraced,0.61,51.5539018,Freehold,0.0233915,420000.0,2018-09-25,secondary
3,"82 Ramsay Road, London, E7 9EW",Non-Newbuild,highway,Terraced,0.51,51.5569088,Freehold,0.017585,420000.0,2018-09-25,residential
4,"21 Mandela Street, London, SW9 6EL",Non-Newbuild,highway,Terraced,0.52,51.4785331,Freehold,-0.110912,560000.0,2018-09-25,residential
5,"115 Murray Road, London, W5 4DB",Non-Newbuild,highway,Terraced,0.51,51.4936125,Leasehold,-0.3132106,495000.0,2018-09-24,residential
6,"55 Briar Avenue, London, SW16 3AB",Non-Newbuild,highway,Semi Detached,0.61,51.4176125,Freehold,-0.1197986,535000.0,2018-09-24,residential
7,"26 Carlingford Road, London, N15 3EH",Non-Newbuild,highway,Terraced,0.61,51.5894258,Freehold,-0.0974695,500000.0,2018-09-24,residential
8,"30 Darwin Road, London, W5 4BD",Non-Newbuild,highway,Terraced,0.51,51.4947089,Freehold,-0.3059546,820000.0,2018-09-24,residential
9,"Flat 5 Peace Court, 8 Swynford Gardens, London, NW4 4XL",Non-Newbuild,,Flat,,,Leasehold,,260000.0,2018-09-24,
10,"Flat 2 59 Dalston Lane, London, E8 2NG",Non-Newbuild,highway,Flat,0.62,51.5462797,Leasehold,-0.0699216,795000.0,2018-09-24,primary
11,"5 Griffins Close, London, N21 2EW",Non-Newbuild,highway,Detached,0.61,51.633648,Freehold,-0.0846013,920000.0,2018-09-24,residential
12,"56 Chatham Road, Walthamstow, London, E17 6EU",Non-Newbuild,highway,Terraced,0.41,51.5948356,Freehold,0.0153564,660000.0,2018-09-21,residential
13,"42 Elm Park Road, London, N3 1EB",Non-Newbuild,place,Terraced,0.521,51.48630785,Freehold,-0.17676975,1112500.0,2018-09-21,house
14,"47 Stanley Road, London, SW14 7EB",Non-Newbuild,shop,Terraced,0.421,51.352929,Freehold,-0.1621619,650000.0,2018-09-21,convenience
15,"354a North End Road, London, SW6 1LY",Non-Newbuild,highway,Flat,0.71,51.4810658,Leasehold,-0.1991401,500000.0,2018-09-21,secondary
16,"137 Rusthall Avenue, London, W4 1BL",Non-Newbuild,highway,Terraced,0.51,51.4991882,Freehold,-0.2609926,1260000.0,2018-09-21,residential
17,"193 Grangehill Road, London, SE9 1SR",Non-Newbuild,highway,Terraced,0.51,51.4635317,Freehold,0.0567287,525000.0,2018-09-21,tertiary
18,"Flat 15 9 Devonhurst Place, London, W4 4JB",Non-Newbuild,,Flat,,,Leasehold,,785000.0,2018-09-21,
19,"9 Rotherwick Road, London, NW11 7DG",Non-Newbuild,highway,Semi Detached,0.51,51.5741202,Freehold,-0.1932932,1510000.0,2018-09-21,residential
20,"40 Paddock Road, London, NW2 7DL",Non-Newbuild,highway,Semi Detached,0.51,51.5641837,Freehold,-0.237102,630000.0,2018-09-21,uncategoryified
21,"Flat 17 Buchanan House, 7 Troubridge Square, London, E17 3GS",Newbuild,,Flat,,,Leasehold,,381000.0,2018-09-21,
22,"33 Highclere Street, London, SE26 4EX",Non-Newbuild,highway,Terraced,0.51,51.4280203,Freehold,-0.0426623,410000.0,2018-09-21,residential
23,"34 Linden Avenue, London, NW10 5RL",Non-Newbuild,building,Semi Detached,0.621,51.53346945,Freehold,-0.220749544778,1225000.0,2018-09-21,yes
24,"Flat 16 Buchanan House, 7 Troubridge Square, London, E17 3GS",Newbuild,,Flat,,,Leasehold,,376000.0,2018-09-21,
25,"37 Narcissus Road, London, NW6 1TL",Non-Newbuild,highway,Terraced,0.51,51.5509169,Freehold,-0.1958482,1475000.0,2018-09-21,residential
26,"22 Gordon Road, South Woodford, London, E18 1DN",Non-Newbuild,highway,Semi Detached,0.72,51.5974888,Freehold,0.0340419,580000.0,2018-09-21,residential
27,"239 New Kings Road, London, SW6 4XG",Non-Newbuild,highway,Terraced,0.61,51.4727014,Freehold,-0.2002992,2531630.0,2018-09-21,primary
28,"Flat 9 59 Christchurch Hill, London, NW3 1JJ",Non-Newbuild,,Flat,,,Leasehold,,486520.0,2018-09-21,
29,"29 Woodville Road, Walthamstow, London, E17 7ER",Non-Newbuild,,Terraced,,,Freehold,,560000.0,2018-09-21,
30,"Flat 19 St George's Court, 83 - 89 St Georges Drive, London, SW1V 4DB",Non-Newbuild,,Flat,,,Leasehold,,740000.0,2018-09-21,
31,"83 Ridge Road, London, N21 3EL",Non-Newbuild,place,Semi Detached,0.411,41.6153771584,Freehold,-72.0913489705,650000.0,2018-09-21,house
32,"16 Old Farm Avenue, London, N14 5QP",Non-Newbuild,highway,Terraced,0.71,51.6377252,Freehold,-0.1322814,900000.0,2018-09-21,residential
33,"Flat 801 Michigan Building, 2 Biscayne Avenue, London, E14 9QT",Non-Newbuild,,Flat,,,Leasehold,,391000.0,2018-09-21,
34,"Flat 2 Regis Court Melcombe Place, London, NW1 6JG",Non-Newbuild,,Flat,,,Leasehold,,650000.0,2018-09-21,
35,"Flat 61 Ability Place, 37 Millharbour, London, E14 9HB",Non-Newbuild,,Flat,,,Leasehold,,428500.0,2018-09-21,
36,"47 Uphill Grove, Mill Hill, London, NW7 4NH",Non-Newbuild,highway,Detached,0.71,51.6196727,Freehold,-0.2454261,950000.0,2018-09-21,residential
37,"5 Overton Drive, London, E11 2NN",Non-Newbuild,,Terraced,,,Freehold,,1005000.0,2018-09-21,
38,"Ground Floor Front Flat 10 Linden Gardens, London, W2 4ES",Non-Newbuild,,Flat,,,Leasehold,,725000.0,2018-09-21,
39,"Flat 253 Manhattan Building Fairfield Road, London, E3 2UJ",Non-Newbuild,,Flat,,,Leasehold,,310000.0,2018-09-21,
40,"17 Holders Hill Drive, London, NW4 1NL",Non-Newbuild,highway,Semi Detached,0.71,51.5959511,Freehold,-0.2114858,770000.0,2018-09-21,residential
41,"Flat 3 Blake Court, 1 Newsholme Drive, London, N21 1SQ",Non-Newbuild,,Flat,,,Leasehold,,600000.0,2018-09-21,
42,"21 Lynwood Road, London, W5 1JQ",Non-Newbuild,highway,Terraced,0.61,51.5284927,Freehold,-0.2998527,910000.0,2018-09-21,residential
43,"Flat 11 Downham Wharf, 28 Hertford Road, London, N1 5QT",Non-Newbuild,,Flat,,,Leasehold,,490000.0,2018-09-21,
44,"19d Claverton Street, London, SW1V 3AY",Non-Newbuild,highway,Flat,0.51,51.4863638,Leasehold,-0.1377436,480000.0,2018-09-21,tertiary
45,"Flat 23a Wetherby Mansions Earls Court Square, London, SW5 9BH",Non-Newbuild,,Flat,,,Leasehold,,850000.0,2018-09-21,
46,"47 College Road, London, NW10 5EL",Non-Newbuild,building,Terraced,0.621,51.5319981,Freehold,-0.225845161307,990000.0,2018-09-21,yes
47,"Flat 13 Witham Court Thant Close, London, E10 5PJ",Non-Newbuild,,Flat,,,Leasehold,,230000.0,2018-09-21,
48,"25 Amherst Avenue, London, W13 8NQ",Non-Newbuild,highway,Semi Detached,0.52,51.5174217,Freehold,-0.3142334,1726000.0,2018-09-21,residential
49,"Flat 5 8 Warminster Road, London, SE25 4DZ",Non-Newbuild,highway,Flat,0.61,51.4055955,Leasehold,-0.073615,125000.0,2018-09-21,residential
50,"Ground Floor Flat 1 Colby Road, London, SE19 1HA",Non-Newbuild,,Flat,,,Leasehold,,350000.0,2018-09-21,
51,"39 Exbury Road, London, SE6 4NB",Non-Newbuild,highway,Semi Detached,0.51,51.4385882,Leasehold,-0.0300239,548500.0,2018-09-21,residential
52,"121 Ossulton Way, London, N2 0JS",Non-Newbuild,highway,Flat,0.51,51.5857298,Leasehold,-0.1808624,435000.0,2018-09-21,tertiary
53,"15c Wilson Road, London, SE5 8PB",Non-Newbuild,place,Flat,0.301,41.3982628588,Leasehold,-72.1092950009,320000.0,2018-09-21,house
54,"2 Barnfield Close, London, SW17 0AU",Non-Newbuild,highway,Flat,0.61,51.4348981,Leasehold,-0.1814536,400000.0,2018-09-21,residential
55,"Lower Maisonette 23 Hansler Road, East Dulwich, London, SE22 9DJ",Non-Newbuild,,Flat,,,Leasehold,,412000.0,2018-09-21,
56,"Flat B 18 Valmar Road, London, SE5 9NG",Non-Newbuild,,Flat,,,Leasehold,,430000.0,2018-09-21,
57,"4 Second Avenue, London, SW14 8QE",Non-Newbuild,building,Terraced,0.421,51.5304788,Freehold,0.157042300234,1375000.0,2018-09-21,yes
58,"Apartment 2 39 Jeffreys Road, London, SW4 6QU",Non-Newbuild,,Flat,,,Leasehold,,458750.0,2018-09-21,
59,"Flat 15 101 Garratt Lane, London, SW18 4GZ",Non-Newbuild,,Flat,,,Leasehold,,540000.0,2018-09-21,
60,"Apartment 109 Warwick Building, 366 Queenstown Road, London, SW11 8NL",Non-Newbuild,,Flat,,,Leasehold,,720000.0,2018-09-21,
61,"39 Foxley Road, London, SW9 6EX",Non-Newbuild,highway,Detached,0.52,51.4802687,Freehold,-0.1083606,800000.0,2018-09-21,tertiary
62,"8 Mercator Road, London, SE13 5EN",Non-Newbuild,highway,Flat,0.51,51.4607198,Leasehold,-0.003689,245000.0,2018-09-21,residential
63,"71 Nile Street, London, N1 7RD",Non-Newbuild,amenity,,0.621,51.529413,Freehold,-0.0879324,1847706.0,2018-09-21,pub
64,"13b Mayflower Road, London, SW9 9JY",Non-Newbuild,highway,Flat,0.51,51.4676598,Leasehold,-0.1266287,494000.0,2018-09-21,residential
65,"Flat 4 26 Harcourt Terrace, London, SW10 9JR",Non-Newbuild,highway,Flat,0.51,51.4872208,Leasehold,-0.1861801,1300000.0,2018-09-21,residential
66,"Apartment 1602 3 Tidal Basin Road, London, E16 1UX",Non-Newbuild,,Flat,,,Leasehold,,586000.0,2018-09-21,
67,"7 Hoppers Road, London, N21 3LN",Non-Newbuild,highway,Detached,0.51,51.6327064,Freehold,-0.1027908,1125000.0,2018-09-21,tertiary
68,"13 Herndon Road, London, SW18 2DQ",Non-Newbuild,highway,Flat,0.51,51.457195,Leasehold,-0.1871623,515000.0,2018-09-21,residential
69,"2 Elm Street, London, WC1X 0BL",Non-Newbuild,place,,0.421,42.9797486,Leasehold,-81.2076701,5000.0,2018-09-21,house
70,"40a Gurdon Road, London, SE7 7RW",Non-Newbuild,highway,Terraced,0.51,51.4857758,Freehold,0.022448,570000.0,2018-09-21,residential
71,"144 Humber Road, London, SE3 7LY",Non-Newbuild,highway,Semi Detached,0.51,51.4832281,Freehold,0.0143164,1600000.0,2018-09-21,residential
72,"Flat 65 Cherry Court Pitt Crescent, London, SW19 8HT",Non-Newbuild,,Flat,,,Leasehold,,345000.0,2018-09-21,
73,"14 Meadowbank Road, London, NW9 8LH",Non-Newbuild,highway,Terraced,0.61,51.5761882,Freehold,-0.2597096,515000.0,2018-09-20,residential
74,"Flat 501 Hampton Apartments Duke Of Wellington Avenue, London, SE18 6NX",Non-Newbuild,,Flat,,,Leasehold,,585000.0,2018-09-20,
75,"49 Lavender Sweep, London, SW11 1DY",Non-Newbuild,highway,Terraced,0.61,51.4639911,Freehold,-0.1647363,1105000.0,2018-09-20,residential
76,"12 Britannia Close, London, SW4 7NN",Non-Newbuild,highway,Terraced,0.51,51.4598591,Freehold,-0.1322866,700000.0,2018-09-20,residential
77,"7 Salop Road, London, E17 7HS",Non-Newbuild,,Terraced,,,Freehold,,594000.0,2018-09-20,
78,"297a Glyn Road, London, E5 0JP",Non-Newbuild,highway,Flat,0.52,51.5563471,Leasehold,-0.0430312,250000.0,2018-09-20,residential
79,"17 Foster Road, London, W4 4NY",Non-Newbuild,place,Semi Detached,0.411,41.3752243546,Freehold,-72.1590186471,2100000.0,2018-09-20,house
80,"13a Moresby Road, London, E5 9LE",Non-Newbuild,highway,Terraced,0.51,51.5670496,Leasehold,-0.0567479,525000.0,2018-09-20,residential
81,"68 Westfield Road, London, W13 9JA",Non-Newbuild,highway,Terraced,0.51,51.5084213,Freehold,-0.3230353,755000.0,2018-09-20,residential
82,"54 Raymond Road, London, E13 0SW",Non-Newbuild,highway,Terraced,0.51,51.5366203,Freehold,0.0337341,350000.0,2018-09-20,residential
83,"Flat 6 Chiltern Place, 66 Chiltern Street, London, W1U 4EJ",Newbuild,,Flat,,,Leasehold,,4700000.0,2018-09-20,
84,"Flat 5 Tickford House, 9 Casey Close, London, NW8 8TY",Non-Newbuild,,Flat,,,Leasehold,,332619.0,2018-09-20,
85,"65 Samson Street, London, E13 9EJ",Non-Newbuild,,Terraced,,,Freehold,,357000.0,2018-09-20,
86,"50 Wrexham Road, London, E3 2TJ",Non-Newbuild,place,Flat,0.531,51.5306545806,Freehold,-0.0185508516129,780000.0,2018-09-20,house
87,"Flat 127 Royal Langford Apartments, 2 Greville Road, London, NW6 5HT",Non-Newbuild,,Flat,,,Leasehold,,427000.0,2018-09-20,
88,"Ground Floor Shop 23 The Broadway, London, N14 6PH",Non-Newbuild,,,,,Leasehold,,5000.0,2018-09-20,
89,"Flat 156 29 Abercorn Place, St Johns Wood, London, NW8 9DU",Non-Newbuild,,Flat,,,Leasehold,,348000.0,2018-09-20,
90,"39 Lyric Road, London, SW13 9QA",Non-Newbuild,highway,Flat,0.61,51.4748432,Leasehold,-0.249411,680000.0,2018-09-20,residential
91,"11 Dundonald Road, London, NW10 3HP",Non-Newbuild,building,Semi Detached,0.621,51.5372957,Freehold,-0.217896539168,1850000.0,2018-09-20,yes
92,"Second Floor Flat 270 Earlsfield Road, London, SW18 3DY",Non-Newbuild,,Flat,,,Leasehold,,538000.0,2018-09-20,
93,"Flat 1 Sir Walter Raleigh Court, 48 Banning Street, London, SE10 0FD",Non-Newbuild,,Flat,,,Leasehold,,162500.0,2018-09-20,
94,"20 Deerdale Road, London, SE24 0AW",Non-Newbuild,highway,Flat,0.61,51.4621463,Leasehold,-0.099226,527500.0,2018-09-20,residential
95,"6 Melbourne Road, London, SW19 3BA",Non-Newbuild,place,Terraced,0.421,51.5724843222,Freehold,-0.0166140666667,700000.0,2018-09-20,house
96,"62 Clarence Road, London, SW19 8QE",Non-Newbuild,place,Terraced,0.421,51.5951249357,Freehold,-0.0381614214286,950000.0,2018-09-20,house
97,"14 Ormesby Close, London, SE28 8NA",Non-Newbuild,highway,Terraced,0.61,51.5077926,Freehold,0.1267814,290000.0,2018-09-20,residential
98,"23 Broadhinton Road, London, SW4 0LT",Non-Newbuild,highway,Terraced,0.51,51.4664008,Freehold,-0.1459576,1600000.0,2018-09-20,residential
99,"Flat 10 Buchanan House, 7 Troubridge Square, London, E17 3GS",Newbuild,,Flat,,,Leasehold,,373500.0,2018-09-19,
100,"117 Leslie Road, East Finchley, London, N2 8BH",Non-Newbuild,highway,Flat,0.62,51.5931234,Leasehold,-0.169714,556000.0,2018-09-19,residential
101,"38a Foxley Road, London, SW9 6ES",Non-Newbuild,highway,Flat,0.52,51.4802687,Leasehold,-0.1083606,570000.0,2018-09-19,tertiary
102,"20 Sheen Gate Gardens, London, SW14 7NY",Non-Newbuild,highway,Terraced,0.62,51.4631919,Freehold,-0.2692092,792500.0,2018-09-19,residential
103,"67 Felhampton Road, London, SE9 3NT",Non-Newbuild,highway,Semi Detached,0.61,51.4333161,Freehold,0.0652884,515000.0,2018-09-19,residential
104,"Flat 5 Belvoir Lodge, 59 Underhill Road, London, SE22 0QX",Non-Newbuild,,Flat,,,Leasehold,,318000.0,2018-09-19,
105,"7 Maitland Road, London, SE26 5NN",Non-Newbuild,highway,Terraced,0.61,51.4197923,Freehold,-0.0510817,690000.0,2018-09-19,residential
106,"35 Clavering Avenue, London, SW13 8DX",Non-Newbuild,highway,Terraced,0.61,51.4861474,Freehold,-0.2310689,1510000.0,2018-09-19,residential
107,"34 Leyborne Avenue, London, W13 9RA",Non-Newbuild,highway,Terraced,0.51,51.5043815,Freehold,-0.3145557,815000.0,2018-09-19,residential
108,"Flat 1 Allison Court, 43 Parkhill Road, London, NW3 2YD",Non-Newbuild,,Flat,,,Leasehold,,800000.0,2018-09-19,
109,"Flat 106 Russell Court Woburn Place, London, WC1H 0LP",Non-Newbuild,,Flat,,,Leasehold,,330000.0,2018-09-19,
110,"18 The Green, London, W3 7PQ",Non-Newbuild,highway,Semi Detached,0.61,51.5181491,Freehold,-0.2520984,400000.0,2018-09-19,residential
111,"Second And Attic Floor Flat 7 Highwood Road, London, N19 4PN",Non-Newbuild,,Flat,,,Leasehold,,744000.0,2018-09-19,
112,"Flat 22 Stourhead House, 79 Tachbrook Street, London, SW1V 2QE",Non-Newbuild,,Flat,,,Leasehold,,825000.0,2018-09-19,
113,"36 Starboard Way, London, E16 2PF",Non-Newbuild,,Terraced,,,Leasehold,,850000.0,2018-09-19,
114,"94 Gellatly Road, London, SE14 5TT",Non-Newbuild,highway,Terraced,0.61,51.467521,Freehold,-0.0496296,740000.0,2018-09-19,secondary
115,"290 High Road Leytonstone, London, E11 3HS",Non-Newbuild,,Flat,,,Leasehold,,270000.0,2018-09-19,
116,"Flat 6 Bridge Court, 13 Newport Avenue, London, E14 2DS",Non-Newbuild,,Flat,,,Leasehold,,450000.0,2018-09-19,
117,"Flat 1 27 Fairbridge Road, London, N19 3EW",Non-Newbuild,highway,Flat,0.61,51.5664383,Leasehold,-0.1266358,750000.0,2018-09-19,residential
118,"Flat 98 Ability Place, 37 Millharbour, London, E14 9HW",Non-Newbuild,,Flat,,,Leasehold,,376000.0,2018-09-19,
119,"Flat 50 Kathleen Godfree Court, 80 Queens Road, London, SW19 8LB",Non-Newbuild,,Flat,,,Leasehold,,225000.0,2018-09-19,
120,"11 Fuller Close, London, E2 6DX",Non-Newbuild,highway,Flat,0.41,51.357263,Leasehold,0.0938378,490000.0,2018-09-19,residential
121,"Flat 17 Cliftonville Court, 143 Burnt Ash Hill, London, SE12 0AN",Non-Newbuild,,Flat,,,Leasehold,,285000.0,2018-09-19,
122,"72 Eleanor Road, London, E8 1DN",Non-Newbuild,highway,Terraced,0.61,51.5444838,Freehold,-0.0602196,1300000.0,2018-09-18,residential
123,"Flat 11 Edgar House Wyvil Road, London, SW8 2SS",Non-Newbuild,,Flat,,,Leasehold,,435000.0,2018-09-18,
124,"6 Princethorpe Road, London, SE26 4PF",Non-Newbuild,highway,Terraced,0.71,51.4284636,Freehold,-0.0489982,775000.0,2018-09-18,residential
125,"19 Upwood Road, London, SW16 5RB",Non-Newbuild,highway,Terraced,0.61,51.4104175,Freehold,-0.1269411,450000.0,2018-09-18,residential
126,"31 Chivers Road, London, E4 9TD",Non-Newbuild,highway,Terraced,0.52,51.6182234,Freehold,-0.0107052,325000.0,2018-09-18,residential
127,"38 Lammas Green, London, SE26 6LT",Non-Newbuild,highway,Terraced,0.61,51.4355005,Freehold,-0.0649534,617000.0,2018-09-18,residential
128,"Flat 141 The Oxygen, 18 Western Gateway, London, E16 1BQ",Non-Newbuild,,Flat,,,Leasehold,,710000.0,2018-09-18,
129,"3b Laurel Road, London, SW20 0PP",Non-Newbuild,place,Terraced,0.301,41.3245014007,Freehold,-72.0629397942,727500.0,2018-09-18,house
130,"204 Colchester Road, Leyton, London, E10 6HQ",Non-Newbuild,highway,Terraced,0.63,51.5732123,Freehold,-0.0042404,200000.0,2018-09-18,residential
131,"46 Anhalt Road, London, SW11 4NX",Non-Newbuild,highway,Terraced,0.51,51.4803265,Freehold,-0.1667607,2575000.0,2018-09-18,residential
132,"Flat 1 32 Manor View, London, N3 2SS",Non-Newbuild,highway,Flat,0.51,51.5969736,Leasehold,-0.1872666,493000.0,2018-09-18,tertiary
133,"39 Chester Close North, London, NW1 4JE",Non-Newbuild,highway,Terraced,0.685,51.5292838,Leasehold,-0.1447901,2450000.0,2018-09-18,service
134,"Flat 302 Waterloo Gardens Milner Square, London, N1 1TY",Non-Newbuild,,Flat,,,Leasehold,,492500.0,2018-09-18,
135,"101 Norman Road, London, E11 4RJ",Non-Newbuild,,Terraced,,,Freehold,,433000.0,2018-09-18,
136,"Flat 8 Buchanan House, 7 Troubridge Square, London, E17 3GS",Newbuild,,Flat,,,Leasehold,,517500.0,2018-09-18,
137,"Flat 363 Russell Court Woburn Place, London, WC1H 0NH",Non-Newbuild,,Flat,,,Leasehold,,330000.0,2018-09-18,
138,"74 Cadogan Place, London, SW1X 9RP",Non-Newbuild,highway,Detached,0.61,51.4947206,Freehold,-0.1570106,6800000.0,2018-09-18,residential
139,"18 De Walden Street, London, W1G 8RN",Non-Newbuild,place,Flat,0.621,51.5191499,Leasehold,-0.1502837,1550000.0,2018-09-18,house
140,"30 Sandhurst Road, London, N9 8AY",Non-Newbuild,highway,Flat,0.61,51.6387059,Leasehold,-0.0419334,273000.0,2018-09-18,residential
141,"Flat 83 St Johns Wood Court St Johns Wood Road, London, NW8 8QS",Non-Newbuild,,Flat,,,Leasehold,,905000.0,2018-09-18,
142,"12 Harlow Road, London, N13 5QT",Non-Newbuild,highway,Terraced,0.61,51.6232639,Freehold,-0.0859317,487500.0,2018-09-18,residential
143,"167 Landells Road, East Dulwich, London, SE22 9PL",Non-Newbuild,building,Terraced,0.721,51.4532511,Freehold,-0.0717479325754,750000.0,2018-09-18,yes
144,"79 Walfield Avenue, London, N20 9PS",Non-Newbuild,building,Semi Detached,0.621,51.63984375,Freehold,-0.181075278846,665000.0,2018-09-18,yes
145,"Flat 22 Peters Court Porchester Road, London, W2 5DR",Non-Newbuild,,Flat,,,Leasehold,,505000.0,2018-09-18,
146,"Flat 307 7 High Holborn, London, WC1V 6DR",Non-Newbuild,,Flat,,,Leasehold,,1000000.0,2018-09-18,
147,"Flat 810 Peninsula Apartments, 4 Praed Street, London, W2 1JJ",Non-Newbuild,,Flat,,,Leasehold,,1350000.0,2018-09-18,
148,"86a Venner Road, London, SE26 5HP",Non-Newbuild,highway,Semi Detached,0.51,51.4229404,Freehold,-0.055164,299995.0,2018-09-18,residential
149,"Flat 16 Priory Grove School, 10 Priory Grove, London, SW8 2PH",Non-Newbuild,,Flat,,,Leasehold,,645000.0,2018-09-18,
150,"Flat 66 Bawley Court, 1 Magellan Boulevard, London, E16 2FU",Non-Newbuild,,Flat,,,Leasehold,,301000.0,2018-09-18,
151,"151 Sydney Road, London, N10 2NL",Non-Newbuild,highway,,0.385,51.5889465,Freehold,-0.106223222398,250000.0,2018-09-18,footway
152,"3 Mcdowall Road, London, SE5 9LD",Non-Newbuild,highway,Terraced,0.51,51.4734974,Freehold,-0.0991796,800000.0,2018-09-18,residential
153,"School House Stroud Crescent, London, SW15 3EQ",Non-Newbuild,highway,,0.51,51.4367516,Freehold,-0.2451003,3000000.0,2018-09-18,residential
154,"10 Hamlet Road, London, SE19 2AW",Non-Newbuild,building,Flat,0.621,51.4156466,Freehold,-0.0734535912698,950000.0,2018-09-18,yes
155,"95 Capel Road, London, E7 0JS",Non-Newbuild,highway,,0.51,51.5542927,Leasehold,0.0276399,375000.0,2018-09-18,tertiary
156,"22 Ashcombe Street, London, SW6 3AN",Non-Newbuild,highway,Terraced,0.51,51.4706313,Freehold,-0.1921625,1275000.0,2018-09-18,residential
157,"42 Ankerdine Crescent, Shooters Hill, London, SE18 3LQ",Non-Newbuild,highway,Terraced,0.71,51.4722541,Freehold,0.0656709,390000.0,2018-09-18,residential
158,"Chestergate House Vauxhall Bridge Road, London, SW1V 1HD",Non-Newbuild,,,,,Freehold,,175000000.0,2018-09-18,
159,"14 Waldstock Road, London, SE28 8SF",Non-Newbuild,highway,Terraced,0.61,51.5048514,Freehold,0.1073577,313000.0,2018-09-18,residential
160,"Flat 4 Kelvedon House Guildford Road, London, SW8 2DN",Non-Newbuild,,Flat,,,Leasehold,,235000.0,2018-09-18,
161,"31 Wilton Avenue, London, W4 2HX",Non-Newbuild,highway,Terraced,0.61,51.4893842,Freehold,-0.2537957,1385000.0,2018-09-17,residential
162,"Flat 4 Cornerways, 1 Daylesford Avenue, London, SW15 5QP",Non-Newbuild,,Flat,,,Leasehold,,528000.0,2018-09-17,
163,"Flat 84 Malford Court The Drive, London, E18 2HT",Non-Newbuild,,Flat,,,Leasehold,,380000.0,2018-09-17,
164,"59 Hazlewell Road, London, SW15 6UT",Non-Newbuild,highway,Semi Detached,0.51,51.459432,Freehold,-0.2271502,2500000.0,2018-09-17,residential
165,"33 Pollards Hill West, London, SW16 4NU",Non-Newbuild,highway,Detached,0.61,51.4021908,Freehold,-0.1244888,666800.0,2018-09-17,residential
166,"217a Well Street, London, E9 6QU",Non-Newbuild,highway,Flat,0.61,51.5433086,Leasehold,-0.0476794,560000.0,2018-09-17,tertiary
167,"10 Chalford Court Putney Hill, London, SW15 6QR",Non-Newbuild,,Flat,,,Leasehold,,617500.0,2018-09-17,
168,"45 Gore Road, London, SW20 8JN",Non-Newbuild,building,Terraced,0.621,51.4076442,Freehold,-0.228660905767,715000.0,2018-09-17,yes
169,"28 Egerton Crescent, London, SW3 2EB",Non-Newbuild,highway,Terraced,0.61,51.4952295,Freehold,-0.1675573,8000000.0,2018-09-17,residential
170,"116 Harold Road, Chingford, London, E4 9SW",Non-Newbuild,highway,Terraced,0.63,51.6204673,Freehold,-0.0049013,490000.0,2018-09-17,residential
171,"10 Torbay Road, London, NW6 7DY",Non-Newbuild,building,Terraced,0.521,51.5412157,Freehold,-0.203431337569,1230000.0,2018-09-17,yes
172,"Flat 4 71 Holland Park, London, W11 3SL",Non-Newbuild,,Flat,,,Leasehold,,1688000.0,2018-09-17,
173,"15 Esther Road, London, E11 1JB",Non-Newbuild,highway,Terraced,0.52,51.5729588,Freehold,0.009288,618100.0,2018-09-17,residential
174,"Flat 3 Derby Court Derby Road, London, E18 2PT",Non-Newbuild,,Flat,,,Leasehold,,300000.0,2018-09-17,
175,"Flat 2 Theodor Court, 1 Nobel Close, London, NW9 5TF",Non-Newbuild,,Flat,,,Leasehold,,389500.0,2018-09-17,
176,"4 Oakhurst Gardens, London, E4 6BQ",Non-Newbuild,highway,Semi Detached,0.41,51.5852504,Freehold,0.0092547,805000.0,2018-09-17,residential
177,"8 Claremont Court Queensway, London, W2 5HX",Non-Newbuild,,Flat,,,Leasehold,,548000.0,2018-09-17,
178,"33 Brunswick Road, London, E10 6RP",Non-Newbuild,highway,Flat,0.61,51.5669123,Leasehold,-0.0085023,425100.0,2018-09-17,residential
179,"52 Garner Road, London, E17 4HQ",Non-Newbuild,place,Terraced,0.531,51.5981412164,Freehold,-0.00780068196721,485000.0,2018-09-17,house
180,"Flat 4 66 Hornsey Rise, London, N19 3SQ",Non-Newbuild,,Flat,,,Leasehold,,500000.0,2018-09-17,
181,"17 Victoria Park Square, London, E2 9PB",Non-Newbuild,building,Terraced,0.621,51.5286282,Freehold,-0.0535780516849,3400000.0,2018-09-17,yes
182,"21 Cissbury Ring North, London, N12 7AL",Non-Newbuild,highway,Semi Detached,0.61,51.6172715,Freehold,-0.1950061,865000.0,2018-09-17,residential
183,"4 Garnham Close, London, N16 7LF",Non-Newbuild,highway,Flat,0.51,51.5624773,Leasehold,-0.071842,456000.0,2018-09-17,residential
184,"22 Summerlee Gardens, London, N2 9QN",Non-Newbuild,highway,Terraced,0.61,51.5876348,Freehold,-0.1607963,1190000.0,2018-09-17,residential
185,"Flat 15 Kingswood Court, 175 Chingford Mount Road, London, E4 8LL",Non-Newbuild,,Flat,,,Leasehold,,175000.0,2018-09-17,
186,"2 Strand School Approach, London, W4 3RN",Non-Newbuild,highway,Terraced,0.585,51.4868598,Freehold,-0.2809332,750000.0,2018-09-17,service
187,"Flat 7 29 Batoum Gardens, London, W6 7QB",Non-Newbuild,,Flat,,,Leasehold,,388000.0,2018-09-17,
188,"56 Leslie Road, East Finchley, London, N2 8BJ",Non-Newbuild,highway,Flat,0.62,51.5931234,Leasehold,-0.169714,455000.0,2018-09-17,residential
189,"Lower Ground Floor Flat 173 Goldhurst Terrace, London, NW6 3ES",Non-Newbuild,,Flat,,,Leasehold,,1100000.0,2018-09-17,
190,"40 Chris Pullen Way, London, N7 9FG",Non-Newbuild,,Flat,,,Leasehold,,236000.0,2018-09-17,
191,"Flat 28 Chiltern Place, 66 Chiltern Street, London, W1U 4EJ",Newbuild,,Flat,,,Leasehold,,1000000.0,2018-09-17,
192,"Flat 1 4 Roland Gardens, London, SW7 3PH",Non-Newbuild,highway,Flat,0.51,51.4890702,Leasehold,-0.1799172,1300000.0,2018-09-17,residential
193,"38 Braemar Gardens, London, NW9 5LB",Non-Newbuild,highway,Semi Detached,0.61,51.6005851,Freehold,-0.2552783,570000.0,2018-09-17,residential
194,"Flat 2 Atherstone House, 69a Gloucester Road, London, SW7 4QN",Non-Newbuild,,Flat,,,Leasehold,,1200000.0,2018-09-17,
195,"17 Sutherland Road, London, N9 7QE",Non-Newbuild,place,Terraced,0.421,51.5905384216,Freehold,-0.0350038204667,360000.0,2018-09-17,house
196,"48 Cheyne Court, London, SW3 5TS",Non-Newbuild,,Flat,,,Leasehold,,2350000.0,2018-09-17,
197,"Flat 3 82 Marchmont Street, London, WC1N 1AG",Non-Newbuild,,Flat,,,Leasehold,,575000.0,2018-09-17,
198,"63 Foxbourne Road, Balham, London, SW17 8EN",Non-Newbuild,place,Flat,0.631,51.439398125,Leasehold,-0.152912191667,701000.0,2018-09-17,house
199,"29 Cranley Gardens, London, SW7 3BD",Non-Newbuild,highway,Flat,0.51,51.4894172,Leasehold,-0.1785934,2000000.0,2018-09-17,residential
200,"Flat 4 33 Talfourd Road, London, SE15 5PA",Non-Newbuild,,Flat,,,Leasehold,,573000.0,2018-09-17,
201,"7 Coombe Road, London, W4 2HR",Non-Newbuild,highway,Terraced,0.61,51.4900789,Freehold,-0.2536155,850000.0,2018-09-17,residential
202,"10 Kenwyn Road, London, SW4 7LH",Non-Newbuild,highway,,0.51,51.4626932,Freehold,-0.1325022,2000.0,2018-09-17,residential
203,"18 Colville Road, London, W3 8BL",Non-Newbuild,highway,,0.51,51.4996835,Freehold,-0.2739731,1763000.0,2018-09-17,uncategoryified
204,"Flat 4 Devonshire House, 216 Westferry Road, London, E14 3SA",Non-Newbuild,,Flat,,,Leasehold,,390000.0,2018-09-17,
205,"Shop Unit 1 97 - 107 Southampton Row, London, WC1B 4AG",Non-Newbuild,,,,,Leasehold,,125000.0,2018-09-17,
206,"Flat 26 Point One Apartments Ramsgate Street, London, E8 2NA",Non-Newbuild,,Flat,,,Leasehold,,152000.0,2018-09-17,
207,"Flat 2 18 - 20 Sturge Avenue, London, E17 4LQ",Non-Newbuild,,Flat,,,Leasehold,,323875.0,2018-09-17,
208,"110 Fairlop Road, Leytonstone, London, E11 1BW",Non-Newbuild,place,Flat,0.631,51.5686496538,Leasehold,0.0061941,330000.0,2018-09-17,house
209,"32a Hurstbourne Road, London, SE23 2AB",Non-Newbuild,highway,Flat,0.51,51.4401044,Leasehold,-0.0385265,475000.0,2018-09-17,residential
210,"Apartment 1505 8 Walworth Road, London, SE1 6EG",Non-Newbuild,,Flat,,,Leasehold,,585000.0,2018-09-17,
211,"23a Trentham Street, London, SW18 5AS",Non-Newbuild,highway,Flat,0.51,51.4425161,Leasehold,-0.2002201,748000.0,2018-09-17,residential
212,"Admiral House, 1 Hospital Way, London, SE13 6UF",Non-Newbuild,,Flat,,,Leasehold,,300000.0,2018-09-17,
213,"Flat 11 Claremont, 14 - 16 St Johns Avenue, London, SW15 2AB",Non-Newbuild,,Flat,,,Leasehold,,650000.0,2018-09-17,
214,"Flat 45 Melbreak House East Dulwich Estate, London, SE22 8AL",Non-Newbuild,,Flat,,,Leasehold,,300000.0,2018-09-17,
215,"Flat 26 Longleigh House Peckham Road, London, SE5 8UW",Non-Newbuild,,Flat,,,Leasehold,,350000.0,2018-09-17,
216,"2h Leyland Road, London, SE12 8DU",Non-Newbuild,highway,Flat,0.51,51.4520366,Leasehold,0.0144377,223500.0,2018-09-17,residential
217,"Flat 20 Mermaid Court Rotherhithe Street, London, SE16 5UB",Non-Newbuild,,Flat,,,Leasehold,,495000.0,2018-09-17,
218,"Flat 36 5 Tidemill Square, London, SE10 0UE",Non-Newbuild,,Flat,,,Leasehold,,637500.0,2018-09-17,
219,"Orchard House, 4 Grosvenor Hill, London, SW19 4RY",Non-Newbuild,,Semi Detached,,,Freehold,,3400000.0,2018-09-17,
220,"69 Portway, London, E15 3QJ",Non-Newbuild,building,,0.441,51.5373625,Leasehold,0.0120322332346,4000.0,2018-09-17,yes
221,"Flat 82 Adriatic Apartments, 20 Western Gateway, London, E16 1BT",Non-Newbuild,,Flat,,,Leasehold,,615000.0,2018-09-14,
222,"45 Shillingford Close, London, NW7 1HQ",Non-Newbuild,highway,Flat,0.51,51.607517,Leasehold,-0.2130972,425000.0,2018-09-14,residential
223,"46 Mafeking Avenue, London, E6 3BH",Non-Newbuild,highway,Terraced,0.61,51.531542,Freehold,0.0456663,360000.0,2018-09-14,residential
224,"10 Bedwell Road, London, N17 7AH",Non-Newbuild,highway,Terraced,0.61,51.6005676,Freehold,-0.0788432,390000.0,2018-09-14,residential
225,"Flat 13 Olympian Court, 720 Wick Lane, London, E3 2PU",Non-Newbuild,,Flat,,,Leasehold,,266500.0,2018-09-14,
226,"20a Devonport Road, London, W12 8NY",Non-Newbuild,highway,Flat,0.52,51.5031669,Leasehold,-0.2306144,420000.0,2018-09-14,residential
227,"155 Mornington Road, Leytonstone, London, E11 3DT",Non-Newbuild,highway,Terraced,0.72,51.5659694,Freehold,0.0135066,810000.0,2018-09-14,residential
228,"Flat 1 40 Hammersmith Grove, London, W6 7HA",Non-Newbuild,highway,Flat,0.61,51.4958093,Leasehold,-0.2266855,767000.0,2018-09-14,residential
229,"16a Packington Street, London, N1 8QB",Non-Newbuild,highway,Terraced,0.52,51.536868,Leasehold,-0.0985681,1200000.0,2018-09-14,tertiary
230,"Flat 16 Manor Court Lodge, 175 High Road, South Woodford, London, E18 2PD",Non-Newbuild,,Flat,,,Leasehold,,240000.0,2018-09-14,
231,"Flat 17 Oak Lodge, 56 Cambridge Road, London, E11 2PS",Non-Newbuild,,Flat,,,Leasehold,,185000.0,2018-09-14,
232,"Flat 404 Riemann Court, 44 Bow Common Lane, London, E3 4FU",Non-Newbuild,,Flat,,,Leasehold,,325000.0,2018-09-14,
233,"9 Lyndhurst Road, London, E4 9JU",Non-Newbuild,highway,Terraced,0.52,51.6037572,Freehold,-0.0038373,535000.0,2018-09-14,residential
234,"Flat 5 17 North Common Road, London, W5 2QB",Non-Newbuild,,Flat,,,Leasehold,,710000.0,2018-09-14,
235,"Flat 7 Ellen Court, 14 The Ridgeway, London, E4 6PT",Non-Newbuild,,Flat,,,Leasehold,,155000.0,2018-09-14,
236,"29a Elder Avenue, London, N8 8PS",Non-Newbuild,highway,Flat,0.61,51.5814508,Leasehold,-0.1226168,495000.0,2018-09-14,residential
237,"Flat 139 Ability Place, 37 Millharbour, London, E14 9HW",Non-Newbuild,,Flat,,,Leasehold,,567000.0,2018-09-14,
238,"Flat 2 St. James School Georges Road, London, N7 8HD",Non-Newbuild,,Flat,,,Leasehold,,605500.0,2018-09-14,
239,"56 Chestnut Avenue, London, E7 0JH",Non-Newbuild,place,Terraced,0.411,41.5298271401,Freehold,-72.0737219087,525000.0,2018-09-14,house
240,"Flat 25 Copperfields Court Gunnersbury Gardens, London, W3 9AF",Non-Newbuild,,Flat,,,Leasehold,,360000.0,2018-09-14,
241,"50 Kings Head Hill, London, E4 7LY",Non-Newbuild,highway,Terraced,0.62,51.6340758,Freehold,-0.0094493,515000.0,2018-09-14,primary
242,"36 Brettenham Road, Walthamstow, London, E17 5BA",Non-Newbuild,,Flat,,,Leasehold,,462000.0,2018-09-14,
243,"18 Millard Close, London, N16 8UU",Non-Newbuild,highway,Flat,0.51,51.5510532,Leasehold,-0.0775982,450000.0,2018-09-14,residential
244,"Flat 18 Whittington Court Aylmer Road, London, N2 0BT",Non-Newbuild,,Flat,,,Leasehold,,400000.0,2018-09-14,
245,"10 Palamos Road, London, E10 7JF",Non-Newbuild,,Terraced,,,Freehold,,475000.0,2018-09-14,
246,"Flat 11 Winkley Court St James Lane, London, N10 3RB",Non-Newbuild,,Flat,,,Leasehold,,326880.0,2018-09-14,
247,"3 Carlton Road, Leytonstone, London, E11 3AQ",Non-Newbuild,,Terraced,,,Freehold,,589000.0,2018-09-14,
248,"Flat 5 55 Navarino Road, London, E8 1AG",Non-Newbuild,highway,Flat,0.61,51.5474213,Leasehold,-0.0634368,422500.0,2018-09-14,residential
249,"23 Stanley Road, London, E12 6RL",Non-Newbuild,highway,Terraced,0.51,51.5462545,Freehold,0.048916,400000.0,2018-09-14,residential
250,"39 Kingswood Avenue, London, NW6 6LS",Non-Newbuild,building,Terraced,0.521,51.5378329,Freehold,-0.210104355322,3200000.0,2018-09-14,yes
251,"16 Breer Street, London, SW6 3HD",Non-Newbuild,highway,Terraced,0.51,51.4670109,Freehold,-0.1907267,900000.0,2018-09-14,residential
252,"50 Mottingham Lane, London, SE12 9AW",Non-Newbuild,highway,Detached,0.51,51.4449797,Freehold,0.0305148,491275.0,2018-09-14,tertiary
253,"45 Queenswood Gardens, London, E11 3SE",Non-Newbuild,highway,Flat,0.61,51.564466,Leasehold,0.026566,325000.0,2018-09-14,uncategoryified
254,"26 Parkside, London, NW7 2LH",Non-Newbuild,highway,Detached,0.52,51.6110628,Freehold,-0.23763,1275000.0,2018-09-14,residential
255,"166 Shernhall Street, London, E17 9HZ",Non-Newbuild,place,Terraced,0.531,51.5822172,Freehold,-0.0037722,675000.0,2018-09-14,house
256,"34 Brodie Road, London, E4 7HF",Non-Newbuild,place,Terraced,0.421,51.6665134,Freehold,-0.0851736,660000.0,2018-09-14,house
257,"21 Wyndham Road, London, E6 1AU",Non-Newbuild,highway,Terraced,0.52,51.5387957,Freehold,0.0393414,375000.0,2018-09-14,residential
258,"16 Capel Close, London, N20 0QU",Non-Newbuild,highway,Flat,0.61,51.625207,Leasehold,-0.1746984,345000.0,2018-09-14,residential
259,"89 Avondale Road, London, SW14 8PU",Non-Newbuild,highway,Flat,0.61,51.46841,Leasehold,-0.2594449,650000.0,2018-09-14,residential
260,"8 Larnach Road, London, W6 9NX",Non-Newbuild,highway,Terraced,0.61,51.4843772,Freehold,-0.2203941,1100000.0,2018-09-14,residential
261,"16 Samantha Close, London, E17 8EU",Non-Newbuild,highway,Detached,0.52,51.5730585,Freehold,-0.0289735,448500.0,2018-09-14,residential
262,"35 Palmerston Road, London, SW14 7QA",Non-Newbuild,building,Terraced,0.521,51.46231305,Freehold,-0.270664464457,1309250.0,2018-09-14,yes
263,"48 Maresfield Gardens, London, NW3 5RX",Non-Newbuild,highway,Detached,0.51,51.5502992,Freehold,-0.177714,3625000.0,2018-09-14,residential
264,"Flat 24 Woburn Court Bedford Road, London, E18 2RS",Non-Newbuild,,Flat,,,Leasehold,,392000.0,2018-09-14,
265,"58 Melrose Avenue, London, SW19 8BX",Non-Newbuild,highway,Terraced,0.61,51.4379139,Freehold,-0.2026404,1080000.0,2018-09-14,residential
266,"42 Ashlone Road, London, SW15 1LR",Non-Newbuild,highway,Terraced,0.51,51.471161,Freehold,-0.2225329,900000.0,2018-09-14,residential
267,"4 Chaucer Road, London, E11 2RE",Non-Newbuild,highway,Terraced,0.61,51.5759289,Freehold,0.02181,755000.0,2018-09-14,residential
268,"84 Fordhook Avenue, London, W5 3LR",Non-Newbuild,highway,Semi Detached,0.51,51.5103821,Freehold,-0.2854376,1100000.0,2018-09-14,residential
269,"55 Kinnoul Road, London, W6 8NG",Non-Newbuild,highway,Terraced,0.61,51.4845805,Freehold,-0.211298,1250000.0,2018-09-14,residential
270,"310 Highbury New Park, London, N5 2LG",Non-Newbuild,highway,Flat,0.62,51.5481318,Leasehold,-0.0978084,475000.0,2018-09-14,tertiary
271,"20 Purcell Crescent, London, SW6 7PB",Non-Newbuild,highway,Terraced,0.61,51.4826766,Freehold,-0.2156725,805000.0,2018-09-14,residential
272,"48 Drakefield Road, London, SW17 8RP",Non-Newbuild,place,Terraced,0.521,51.4358384952,Freehold,-0.155439180952,1850000.0,2018-09-14,house
273,"27 Minton Mews, London, NW6 1XX",Non-Newbuild,highway,Flat,0.61,51.54934,Leasehold,-0.1868989,385000.0,2018-09-14,residential
274,"Unit 3 202 Blackstock Road, London, N5 1EN",Non-Newbuild,highway,Flat,0.41,51.5643225,Leasehold,-0.1037988,515000.0,2018-09-14,primary
275,"51 Glenesk Road, London, SE9 1AH",Non-Newbuild,highway,Detached,0.61,51.45503,Freehold,0.0654239,1475000.0,2018-09-14,residential
276,"111 Calvert Road, London, SE10 0DG",Non-Newbuild,highway,Terraced,0.51,51.4845029,Freehold,0.0108156,705000.0,2018-09-14,residential
277,"Flat 58 Thomas More House Barbican, London, EC2Y 8BT",Non-Newbuild,,Flat,,,Leasehold,,695000.0,2018-09-14,
278,"27 West Heath Road, London, SE2 0RU",Non-Newbuild,highway,Terraced,0.71,51.4794111,Freehold,0.1247476,410000.0,2018-09-14,residential
279,"207 Popes Lane, London, W5 4NH",Non-Newbuild,highway,Semi Detached,0.41,51.5008176,Freehold,-0.2965231,930000.0,2018-09-14,secondary
280,"17 Cuckoo Avenue, London, W7 1BP",Non-Newbuild,highway,Terraced,0.61,51.5261768,Freehold,-0.3375589,570000.0,2018-09-14,residential
281,"45 Priory Avenue, London, E4 8AD",Non-Newbuild,,Semi Detached,,,Freehold,,520000.0,2018-09-14,
282,"35 Lower Boston Road, London, W7 3TP",Non-Newbuild,highway,Terraced,0.62,51.50723,Freehold,-0.3409921,600000.0,2018-09-14,primary
283,"Flat 13 Garand Court Eden Grove, London, N7 8EB",Non-Newbuild,,Flat,,,Leasehold,,490000.0,2018-09-14,
284,"51 Russet Crescent, London, N7 9TD",Non-Newbuild,highway,Terraced,0.585,51.5526162,Freehold,-0.1165839,588500.0,2018-09-14,service
285,"Flat 23 Cavendish Mansions Mill Lane, London, NW6 1TE",Non-Newbuild,,Flat,,,Leasehold,,600000.0,2018-09-14,
286,"74 Lansdowne Road, London, E17 8QU",Non-Newbuild,,Terraced,,,Freehold,,810000.0,2018-09-14,
287,"196 Boundary Road, London, N22 6AJ",Non-Newbuild,highway,Terraced,0.61,51.5967418,Freehold,-0.0935047,735000.0,2018-09-14,residential
288,"Flat 13 Coleridge Court, 38 Dibden Street, London, N1 8RH",Non-Newbuild,,Flat,,,Leasehold,,183750.0,2018-09-14,
289,"4 Vicars Close, London, E15 3QX",Non-Newbuild,,Terraced,,,Freehold,,490000.0,2018-09-14,
290,"19 Jessamine Road, London, W7 3SQ",Non-Newbuild,highway,Terraced,0.61,51.5079732,Freehold,-0.3376929,550000.0,2018-09-14,residential
291,"Flat 37 Regency Lodge Adelaide Road, London, NW3 5ED",Non-Newbuild,,Flat,,,Leasehold,,885000.0,2018-09-14,
292,"Flat 3 Baltic Apartments, 11 Western Gateway, London, E16 1AE",Non-Newbuild,,Flat,,,Leasehold,,305000.0,2018-09-14,
293,"3 Limes Avenue, London, NW7 3NY",Non-Newbuild,building,Detached,0.421,51.6218524,Freehold,-0.178495504657,990000.0,2018-09-14,yes
294,"Flat 18 21 Devonshire Terrace, London, W2 3DW",Non-Newbuild,,Flat,,,Leasehold,,600000.0,2018-09-14,
295,"Top Floor Flat 35 Frith Road, London, E11 4EX",Non-Newbuild,,Flat,,,Leasehold,,326500.0,2018-09-14,
296,"42 Listria Park, London, N16 5SL",Non-Newbuild,place,Terraced,0.521,51.5644782,Freehold,-0.0746331,1132500.0,2018-09-14,house
297,"1 Ravenhill Road, London, E13 9BU",Non-Newbuild,,Semi Detached,,,Freehold,,205000.0,2018-09-14,
298,"582 Rochester Way, London, SE9 1RL",Non-Newbuild,highway,Terraced,0.51,51.460335,Freehold,0.0487957,376150.0,2018-09-14,trunk
299,"272a Manchester Road, London, E14 3HW",Non-Newbuild,highway,Terraced,0.51,51.4876954,Freehold,-0.0104435,725000.0,2018-09-14,primary
300,"3 Rocque Lane, London, SE3 9JN",Non-Newbuild,highway,Semi Detached,0.71,51.465346,Freehold,0.0129122,1495000.0,2018-09-14,residential
301,"Flat 49 33 Borland Road, London, SE15 3BL",Non-Newbuild,,Flat,,,Leasehold,,475000.0,2018-09-14,
302,"38 Chester Court Lomond Grove, London, SE5 7HS",Non-Newbuild,,Flat,,,Leasehold,,325000.0,2018-09-14,
303,"32 Gomm Road, London, SE16 2TX",Non-Newbuild,highway,Terraced,0.61,51.4951345,Freehold,-0.0532745,1132500.0,2018-09-14,residential
304,"Flat 42 2 Stanley Road, Wimbledon, London, SW19 8RL",Non-Newbuild,,Flat,,,Leasehold,,397500.0,2018-09-14,
305,"Flat 77 Catalpa Court Hither Green Lane, London, SE13 6TG",Non-Newbuild,,Flat,,,Leasehold,,370000.0,2018-09-14,
306,"Flat 701 Spice Quay Heights, 32 Shad Thames, London, SE1 2YL",Non-Newbuild,,Flat,,,Leasehold,,540000.0,2018-09-14,
307,"34 Howden Close, London, SE28 8HD",Non-Newbuild,highway,Flat,0.61,51.5051641,Leasehold,0.1242579,184995.0,2018-09-14,residential
308,"Flat 1 380 Old Kent Road, London, SE1 5AA",Non-Newbuild,,Flat,,,Leasehold,,275000.0,2018-09-14,
309,"11 Kempthorne Road, London, SE8 3QD",Non-Newbuild,highway,Flat,0.61,51.4914193,Leasehold,-0.0355079,272500.0,2018-09-14,residential
310,"26 Arnulls Road, London, SW16 3EP",Non-Newbuild,highway,Semi Detached,0.51,51.420506,Freehold,-0.1086296,660000.0,2018-09-14,residential
311,"4a Louisville Road, London, SW17 8RW",Non-Newbuild,place,Flat,0.421,51.4356920649,Leasehold,-0.156722114035,695000.0,2018-09-14,house
312,"25a Nutcroft Road, London, SE15 1AG",Non-Newbuild,highway,Flat,0.51,51.4784836,Leasehold,-0.0629377,390000.0,2018-09-14,residential
313,"75 Erlanger Road, London, SE14 5TQ",Non-Newbuild,highway,Semi Detached,0.51,51.470251,Freehold,-0.0463563,1310000.0,2018-09-14,residential
314,"11 Neckinger Estate, London, SE16 3QH",Non-Newbuild,highway,Flat,0.52,51.4958992,Leasehold,-0.0732574,361201.0,2018-09-14,residential
315,"Flat B 76 Lebanon Gardens, London, SW18 1RH",Non-Newbuild,,Flat,,,Leasehold,,510000.0,2018-09-14,
316,"24 Grosvenor Gardens, London, SW14 8BY",Non-Newbuild,building,Terraced,0.621,51.4660779,Freehold,-0.256473785083,991856.0,2018-09-14,yes
317,"42c Culverden Road, London, SW12 9LS",Non-Newbuild,place,Flat,0.421,51.4384693,Leasehold,-0.1428241,450000.0,2018-09-14,house
318,"Flat 1 Dovecote Building, 129 Battersea Rise, London, SW11 1HE",Non-Newbuild,,Flat,,,Leasehold,,505000.0,2018-09-14,
319,"Flat 417 Harwood Court Upper Richmond Road, London, SW15 6JE",Non-Newbuild,,Flat,,,Leasehold,,285000.0,2018-09-14,
320,"515 Granite Apartments, 30 River Gardens Walk, London, SE10 0GB",Non-Newbuild,,Flat,,,Leasehold,,435000.0,2018-09-14,
321,"58 Woodbourne Avenue, London, SW16 1UT",Non-Newbuild,highway,Semi Detached,0.51,51.4332038,Freehold,-0.1339759,1320000.0,2018-09-14,residential
322,"Flat 5 Milner House, 2 Taymount Rise, Forest Hill, London, SE23 3UU",Non-Newbuild,,Flat,,,Leasehold,,255000.0,2018-09-14,
323,"First Floor Flat 17 Wolfington Road, London, SE27 0JF",Non-Newbuild,,Flat,,,Leasehold,,495000.0,2018-09-14,
324,"44 Larchwood Road, London, SE9 3SF",Non-Newbuild,highway,Flat,0.51,51.434802,Freehold,0.0689713,480000.0,2018-09-14,residential
325,"25 Princes Road, London, SW14 8PE",Non-Newbuild,building,Terraced,0.521,51.46645225,Freehold,-0.261284964587,650000.0,2018-09-14,yes
326,"Apartment 4 1 Pilgrimage Street, London, SE1 4GQ",Non-Newbuild,,Flat,,,Leasehold,,1030000.0,2018-09-14,
327,"Flat 2 8 Mowbray Road, London, SE19 2RN",Non-Newbuild,highway,Flat,0.61,51.4128963,Leasehold,-0.0765079,490000.0,2018-09-14,residential
328,"130 Royal Hill, London, SE10 8SS",Non-Newbuild,highway,Terraced,0.61,51.4753108,Freehold,-0.0121258,555000.0,2018-09-14,residential
329,"73 Queenswood Road, London, SE23 2QR",Non-Newbuild,place,Flat,0.411,43.3941131695,Leasehold,-72.0091951331,465000.0,2018-09-14,house
330,"Flat 17 Independence House, 6 Chapter Way, London, SW19 2RX",Non-Newbuild,,Flat,,,Leasehold,,345000.0,2018-09-14,
331,"64 Eland Road, London, SW11 5JY",Non-Newbuild,highway,Terraced,0.52,51.4656996,Freehold,-0.1600142,930000.0,2018-09-14,residential
332,"Flat D 149 - 151 Kirkdale, Sydenham, London, SE26 4QJ",Non-Newbuild,,Flat,,,Leasehold,,235000.0,2018-09-14,
333,"Basement Flat 2 16 Hamlet Road, London, SE19 2AW",Non-Newbuild,,Flat,,,Leasehold,,337500.0,2018-09-14,
334,"54 Greenland Quay, London, SE16 7RW",Non-Newbuild,highway,Terraced,0.61,51.4935243,Freehold,-0.0418757,850000.0,2018-09-14,residential
335,"2 Ripley Gardens, London, SW14 8HF",Non-Newbuild,highway,Terraced,0.61,51.4681908,Freehold,-0.2604148,860000.0,2018-09-14,residential
336,"5 Lynn Road, London, SW12 9LB",Non-Newbuild,highway,Flat,0.51,51.450342,Leasehold,-0.1463159,590000.0,2018-09-14,residential
337,"Flat 1 62 Battersea Rise, London, SW11 1EG",Non-Newbuild,,Flat,,,Leasehold,,255000.0,2018-09-14,
338,"26b Gleneldon Road, Streatham, London, SW16 2AY",Non-Newbuild,highway,Flat,0.51,51.4282433,Leasehold,-0.1250126,435000.0,2018-09-14,residential
339,"30 Hall Drive, London, SE26 6XB",Non-Newbuild,highway,Terraced,0.51,51.4255813,Freehold,-0.0588481,875000.0,2018-09-14,residential
340,"18 University Road, London, SW19 2BX",Non-Newbuild,highway,Flat,0.51,51.4202461,Leasehold,-0.1766203,575000.0,2018-09-14,residential
341,"Flat 7 30 Belmont Hill, London, SE13 5BA",Non-Newbuild,,Flat,,,Leasehold,,450000.0,2018-09-14,
342,"62 Stanton Road, London, SW20 8RJ",Non-Newbuild,place,Semi Detached,0.411,41.5809406592,Freehold,-72.1951565897,950000.0,2018-09-14,house
343,"20 Montague Road, London, SW19 1SY",Non-Newbuild,place,Semi Detached,0.321,51.6273038429,Freehold,-0.0459032571429,1950000.0,2018-09-14,house
344,"20 Hodgkin Court, 2 Dobson Walk, London, SE5 7FN",Non-Newbuild,,Flat,,,Leasehold,,200000.0,2018-09-14,
345,"27 Evelyn Road, London, SW19 8NU",Non-Newbuild,place,Terraced,0.421,51.5836240333,Freehold,-0.00521275,965000.0,2018-09-14,house
346,"Flat 25 Southend House, 141 Footscray Road, London, SE9 2TA",Non-Newbuild,,Flat,,,Leasehold,,220000.0,2018-09-14,
347,"78c The Chase, London, SW4 0NG",Non-Newbuild,highway,Flat,0.51,51.4638548,Leasehold,-0.1463135,535000.0,2018-09-14,residential
348,"466a Baring Road, London, SE12 0EG",Non-Newbuild,highway,Flat,0.51,51.4307622,Leasehold,0.0213121,217500.0,2018-09-14,primary
349,"61 Brailsford Road, London, SW2 2TB",Non-Newbuild,highway,Flat,0.51,51.4538924,Leasehold,-0.1124406,537000.0,2018-09-14,uncategoryified
350,"1 Ashbury Place, London, SW19 8TQ",Non-Newbuild,highway,Semi Detached,0.61,51.4224472,Freehold,-0.1889599,891000.0,2018-09-14,residential
351,"Flat 32 Kinetica Apartments, 12 Tyssen Street, London, E8 2FE",Non-Newbuild,,Flat,,,Leasehold,,365000.0,2018-09-14,
352,"82 Emerson Apartments Chadwell Lane, London, N8 7RF",Non-Newbuild,,Flat,,,Leasehold,,377000.0,2018-09-14,
353,"Flat 1311 Landmark East Tower, 24 Marsh Wall, London, E14 9BT",Non-Newbuild,,Flat,,,Leasehold,,410000.0,2018-09-14,
354,"75 Wakehurst Road, London, SW11 6DA",Non-Newbuild,highway,Semi Detached,0.52,51.4581288,Freehold,-0.1606205,1650000.0,2018-09-14,residential
355,"38 Louisa Oakes Close, London, E4 8AS",Non-Newbuild,,Flat,,,Leasehold,,322000.0,2018-09-14,
356,"147 Clarence Crescent, London, SW4 8LN",Non-Newbuild,highway,Flat,0.51,51.4507219,Leasehold,-0.1332662,445000.0,2018-09-14,residential
357,"13 Clifden Road, London, E5 0LL",Non-Newbuild,highway,Terraced,0.51,51.5517747,Freehold,-0.0463428,987500.0,2018-09-14,residential
358,"Flat 43 Bellamy House Garratt Lane, London, SW17 0LS",Non-Newbuild,,Flat,,,Leasehold,,400000.0,2018-09-14,
359,"29 Brocklebank Road, London, SW18 3AP",Non-Newbuild,highway,Terraced,0.61,51.4488209,Freehold,-0.1850996,1145000.0,2018-09-14,residential
360,"40 St Georges Road, London, SW19 4ED",Non-Newbuild,building,Semi Detached,0.521,51.41991885,Freehold,-0.210187939132,1350000.0,2018-09-14,yes
361,"35 Rowena Crescent, London, SW11 2PT",Non-Newbuild,highway,Terraced,0.51,51.4702473,Freehold,-0.1678087,990000.0,2018-09-14,residential
362,"535 Wandsworth Road, London, SW8 3JD",Non-Newbuild,highway,,0.51,51.4844344,Freehold,-0.1263968,250000.0,2018-09-14,trunk
363,"121 Dunlace Road, London, E5 0NG",Non-Newbuild,place,Terraced,0.531,51.5529089968,Freehold,-0.0424519,930000.0,2018-09-14,house
364,"Flat 2 36 Marlborough Road, London, N19 4NB",Non-Newbuild,highway,Flat,0.51,51.5647981,Leasehold,-0.1268136,275000.0,2018-09-14,tertiary
365,"23 Newton Road, London, W2 5JR",Non-Newbuild,highway,Terraced,0.61,51.5162161,Freehold,-0.1909591,3300000.0,2018-09-14,residential
366,"127 Wilmot Street, London, E2 0BU",Non-Newbuild,highway,Flat,0.51,51.5255842,Leasehold,-0.059182,560000.0,2018-09-14,residential
367,"38 Heathfield Gardens, London, W4 4JX",Non-Newbuild,highway,Semi Detached,0.61,51.4895972,Freehold,-0.2690127,6109950.0,2018-09-14,residential
368,"400a Uxbridge Road, London, W12 0NP",Non-Newbuild,highway,,0.51,51.5064645,Leasehold,-0.2345113,710000.0,2018-09-14,primary
369,"Flat 15 Long Ridges Fortis Green, London, N2 9HN",Non-Newbuild,,Flat,,,Leasehold,,515000.0,2018-09-14,
370,"Flat 6 58 Rutland Gate, London, SW7 1PL",Non-Newbuild,,Flat,,,Leasehold,,1370000.0,2018-09-14,
371,"Flat 1 Leyla House, 2 Dunn Street, London, E8 2DB",Non-Newbuild,,Flat,,,Leasehold,,299000.0,2018-09-14,
372,"Flat 8 Woollon House Clark Street, London, E1 3ES",Non-Newbuild,,Flat,,,Leasehold,,397500.0,2018-09-14,
373,"299 Portobello Road, London, W10 5TD",Non-Newbuild,amenity,Terraced,0.521,51.51923025,Freehold,-0.207735906934,1125000.0,2018-09-14,restaurant
374,"166 Sebert Road, London, E7 0NN",Non-Newbuild,highway,Semi Detached,0.61,51.5510157,Freehold,0.030486,610000.0,2018-09-14,residential
375,"22 Temple Sheen, London, SW14 7RP",Non-Newbuild,highway,Detached,0.52,51.461255,Freehold,-0.2738176,1550000.0,2018-09-14,residential
376,"39 Lexington Apartments, 40 City Road, London, EC1Y 2AN",Non-Newbuild,,Flat,,,Leasehold,,845000.0,2018-09-14,
377,"24 Vandyke Cross, London, SE9 6DE",Non-Newbuild,highway,Semi Detached,0.61,51.4528893,Freehold,0.0426436,400000.0,2018-09-14,residential
378,"76 - 78 St Leonards Road, London, E14 0QU",Non-Newbuild,highway,,0.51,51.5140559,Leasehold,-0.3143491,125000.0,2018-09-14,tertiary
379,"Flat A 14 Huron Road, London, SW17 8RB",Non-Newbuild,,Flat,,,Leasehold,,660050.0,2018-09-14,
380,"154 Caledonian Road, London, N1 9RD",Non-Newbuild,building,Detached,0.521,51.5345048,Freehold,-0.1168376,1725000.0,2018-09-14,yes
381,"88 Montreal House Surrey Quays Road, London, SE16 7AP",Non-Newbuild,,Flat,,,Leasehold,,494000.0,2018-09-14,
382,"Flat 6 55 Ebury Street, London, SW1W 0PA",Non-Newbuild,highway,Flat,0.51,51.4924996,Leasehold,-0.1512082,2600000.0,2018-09-14,residential
383,"Flat 24 Haven Green Court Haven Green, London, W5 2UZ",Non-Newbuild,,Flat,,,Leasehold,,750000.0,2018-09-14,
384,"59 Roma Road, London, E17 6HA",Non-Newbuild,place,Terraced,0.531,51.5902772932,Freehold,-0.0326260965767,465000.0,2018-09-13,house
385,"47 The Drive, Walthamstow, London, E17 3DF",Non-Newbuild,place,Semi Detached,0.631,51.5891485,Freehold,-0.0097462,915000.0,2018-09-13,house
386,"11 Northumberland Road, London, E6 5RN",Non-Newbuild,highway,Flat,0.61,51.5136399,Leasehold,0.0517684,162000.0,2018-09-13,residential
387,"18 Drysdale Avenue, London, E4 7NJ",Non-Newbuild,highway,Semi Detached,0.52,51.6376311,Freehold,-0.009246,407000.0,2018-09-13,residential
388,"Flat 23 Shropshire House Cavendish Road, Edmonton, London, N18 2HT",Non-Newbuild,,Flat,,,Leasehold,,203000.0,2018-09-13,
389,"Flat 404 Adelaide Wharf, 120 Queensbridge Road, London, E2 8FB",Non-Newbuild,,Flat,,,Leasehold,,750000.0,2018-09-13,
390,"Flat 4 24 Bickerton Road, London, N19 5JS",Non-Newbuild,highway,Flat,0.51,51.5627248,Leasehold,-0.13857,490000.0,2018-09-13,residential
391,"Flat 24 Palmerston Court, 262 Old Ford Road, London, E3 5SA",Non-Newbuild,,Flat,,,Leasehold,,395000.0,2018-09-13,
392,"16 Byron Road, London, E17 4SW",Non-Newbuild,building,Terraced,0.531,51.5876599,Freehold,-0.0173935764045,550000.0,2018-09-13,yes
393,"Flat 2 53 - 55 Navarino Road, London, E8 1AG",Non-Newbuild,,Flat,,,Leasehold,,651000.0,2018-09-13,
394,"104 Friars Walk, London, N14 5LH",Non-Newbuild,highway,Semi Detached,0.51,51.6383795,Freehold,-0.1426772,356000.0,2018-09-13,residential
395,"80 Lansdowne Road, London, W11 2LS",Non-Newbuild,place,Terraced,0.421,51.576844755,Freehold,-0.021750955,6350000.0,2018-09-13,house
396,"42 Warwick Chambers Pater Street, London, W8 6EW",Non-Newbuild,,Flat,,,Leasehold,,1185000.0,2018-09-13,
397,"Flat A 93 Oxford Gardens, London, W10 5UL",Non-Newbuild,,Flat,,,Leasehold,,518000.0,2018-09-13,
398,"Flat 10 64 - 66 Sinclair Road, London, W14 0NJ",Non-Newbuild,,Flat,,,Leasehold,,390000.0,2018-09-13,
399,"50 Elliscombe Road, London, SE7 7PY",Non-Newbuild,highway,Terraced,0.61,51.4820921,Freehold,0.0329811,810000.0,2018-09-13,residential
400,"37 Bedwardine Road, London, SE19 3AS",Non-Newbuild,highway,Flat,0.51,51.4175505,Leasehold,-0.0851106,383000.0,2018-09-13,residential
401,"Flat 31 Princes Court, 88 Brompton Road, London, SW3 1ES",Non-Newbuild,,Flat,,,Leasehold,,1050000.0,2018-09-13,
402,"68 Chelsea Park Gardens, London, SW3 6AE",Non-Newbuild,highway,Terraced,0.61,51.4851485,Freehold,-0.1778355,5800000.0,2018-09-13,residential
403,"12a Lake Close, London, SW19 7EG",Non-Newbuild,highway,Flat,0.41,51.5571421,Leasehold,0.1266231,497000.0,2018-09-13,residential
404,"78a Royal Hospital Road, London, SW3 4HN",Non-Newbuild,highway,Flat,0.71,51.4869153,Freehold,-0.1600772,690000.0,2018-09-13,secondary
405,"12 Connaught Road, London, N4 4NS",Non-Newbuild,place,Terraced,0.421,51.3750588,Freehold,-0.1811216,1075000.0,2018-09-13,house
406,"131 Brent Street, London, NW4 4BY",Non-Newbuild,highway,,0.51,51.5881251,Leasehold,-0.2213382,310000.0,2018-09-13,primary
407,"10e Randolph Crescent, London, W9 1DR",Non-Newbuild,highway,Flat,0.52,51.5255006,Leasehold,-0.1823393,1418000.0,2018-09-13,residential
408,"1175a Finchley Road, London, NW11 0AA",Non-Newbuild,highway,,0.51,51.5893321,Freehold,-0.1996932,1980000.0,2018-09-13,primary
409,"Flat 30 Oaklands House, 59 - 65 Belsize Road, London, NW6 4BE",Non-Newbuild,,Flat,,,Leasehold,,204000.0,2018-09-13,
410,"Flat 12 Nofax House, 11 Voltaire Road, London, SW4 6DQ",Non-Newbuild,,Flat,,,Leasehold,,545000.0,2018-09-13,
411,"Flat 12 Broadhurst House Joseph Street, London, E3 4HY",Non-Newbuild,,Flat,,,Leasehold,,460000.0,2018-09-13,
412,"Apartment 39 Drew House, 21 Wharf Street, London, SE8 3GG",Non-Newbuild,,Flat,,,Leasehold,,865000.0,2018-09-13,
413,"Flat 1 Midland Court Finchley Road, London, NW3 5HP",Non-Newbuild,,Flat,,,Leasehold,,200000.0,2018-09-13,
414,"Apartment 8 Drew House, 21 Wharf Street, London, SE8 3GG",Non-Newbuild,,Flat,,,Leasehold,,530000.0,2018-09-13,
415,"Flat 50 Bishops Court, 76 Bishops Bridge Road, London, W2 6BE",Non-Newbuild,,Flat,,,Leasehold,,1000000.0,2018-09-13,
416,"8 Bath Close, London, SE15 2JP",Non-Newbuild,highway,Flat,0.61,51.4760244,Leasehold,-0.0575777,346500.0,2018-09-13,residential
417,"74 Clitherow Avenue, London, W7 2BT",Non-Newbuild,highway,Terraced,0.51,51.5003931,Freehold,-0.3265505,845000.0,2018-09-13,residential
418,"25a Woodland Road, London, SE19 1NS",Non-Newbuild,place,Flat,0.301,41.4966826686,Leasehold,-72.0741089995,305000.0,2018-09-13,house
419,"1 Warren Close, London, N9 8QE",Non-Newbuild,highway,Terraced,0.61,51.6335532,Freehold,-0.0414493,497500.0,2018-09-13,residential
420,"16 Ashen Grove, London, SW19 8BN",Non-Newbuild,highway,Terraced,0.61,51.4378244,Freehold,-0.1993966,895000.0,2018-09-13,residential
421,"Flat 2 55 Aberdare Gardens, London, NW6 3AL",Non-Newbuild,highway,Flat,0.51,51.542094,Leasehold,-0.1850113,295000.0,2018-09-13,residential
422,"80 Alston Road, London, SW17 0TP",Non-Newbuild,highway,Semi Detached,0.51,51.4290282,Freehold,-0.1784894,805000.0,2018-09-13,residential
423,"13 Raymond Avenue, London, W13 9UY",Non-Newbuild,place,Semi Detached,0.421,51.5912850385,Freehold,0.0158896307692,930000.0,2018-09-13,house
424,"Flat 8 322 Holmesdale Road, South Norwood, London, SE25 6PP",Non-Newbuild,,Flat,,,Leasehold,,255000.0,2018-09-13,
425,"Garage 12 Hennel Close, London, SE23 2NT",Non-Newbuild,,,,,Freehold,,15000.0,2018-09-13,
426,"124 Dale View Crescent, London, E4 6PG",Non-Newbuild,highway,Semi Detached,0.62,51.6221504,Freehold,-0.0023579,542000.0,2018-09-13,residential
427,"41 Lytham Street, London, SE17 2PN",Non-Newbuild,highway,Terraced,0.52,51.4853358,Freehold,-0.0913174,538000.0,2018-09-13,residential
428,"56 Selby Road, London, SE20 8ST",Non-Newbuild,building,Terraced,0.521,51.4053827,Freehold,-0.0687878,342500.0,2018-09-13,yes
429,"Flat Gb3 The Banner Building, 74 - 84 Banner Street, London, EC1Y 8JU",Non-Newbuild,,Flat,,,Leasehold,,1400000.0,2018-09-13,
430,"146 Alderwood Road, London, SE9 2LQ",Non-Newbuild,highway,Terraced,0.61,51.447366,Freehold,0.0845081,408000.0,2018-09-13,residential
431,"Flat 2 43 - 47 Ponder Street, London, N7 8UD",Non-Newbuild,,Flat,,,Leasehold,,375000.0,2018-09-13,
432,"58 Stanmore Road, London, N15 3PS",Non-Newbuild,highway,Terraced,0.61,51.58806,Freehold,-0.0967732,850000.0,2018-09-13,tertiary
433,"1 Beech Close, London, SW19 4TU",Non-Newbuild,place,Terraced,0.421,51.3772148,Freehold,-0.1676062,1150000.0,2018-09-13,house
434,"Flat 6 43 - 47 Ponder Street, London, N7 8UD",Non-Newbuild,,Flat,,,Leasehold,,375000.0,2018-09-13,
435,"Flat 301 190 St John Street, London, EC1V 4JY",Non-Newbuild,,Flat,,,Leasehold,,1450000.0,2018-09-13,
436,"33 Linkway, London, SW20 9AT",Non-Newbuild,highway,Semi Detached,0.43,51.4032309,Leasehold,-0.2343814,935000.0,2018-09-13,residential
437,"Ground Floor And Basement Shop 19 Great Ormond Street, London, WC1N 3JB",Non-Newbuild,,,,,Leasehold,,25000.0,2018-09-13,
438,"17 Broomfield Road, London, W13 9AP",Non-Newbuild,highway,Terraced,0.61,51.5106904,Freehold,-0.3167115,750000.0,2018-09-13,residential
439,"Flat 22 Nacovia House Townmead Road, London, SW6 2GW",Non-Newbuild,,Flat,,,Leasehold,,440300.0,2018-09-12,
440,"289a Green Lanes, London, N4 2TU",Non-Newbuild,place,Flat,0.311,51.5888395465,Leasehold,-0.101698781404,700000.0,2018-09-12,house
441,"Flat 34 200 Mile End Road, London, E1 4LD",Non-Newbuild,,Flat,,,Leasehold,,275000.0,2018-09-12,
442,"Apartment 106 Cordage House, 15 Cobblestone Square, London, E1W 3AS",Non-Newbuild,,Flat,,,Leasehold,,680000.0,2018-09-12,
443,"Apartment 116 Worcester Point Central Street, London, EC1V 8BJ",Non-Newbuild,,Flat,,,Leasehold,,978000.0,2018-09-12,
444,"Flat 5 6 Princes Close, London, N4 2PS",Non-Newbuild,,Flat,,,Leasehold,,152000.0,2018-09-12,
445,"20 Brownlow Road, London, N3 1NA",Non-Newbuild,highway,Flat,0.61,51.6070899,Leasehold,-0.1860344,470000.0,2018-09-12,residential
446,"Flat 6 Baldwin Court, 83a Highfield Avenue, London, NW11 9TE",Non-Newbuild,,Flat,,,Leasehold,,358000.0,2018-09-12,
447,"Flat 9 Glade Apartments, 24 Stebondale Street, London, E14 3NQ",Non-Newbuild,,Flat,,,Leasehold,,475000.0,2018-09-12,
448,"11 Ormonde Gate, London, SW3 4EU",Non-Newbuild,highway,Terraced,0.51,51.4866957,Freehold,-0.1611354,13650000.0,2018-09-12,residential
449,"Flat 2 4 Ladbroke Square, London, W11 3LX",Non-Newbuild,highway,Flat,0.549582974472,51.5102689,Leasehold,-0.2020614,3308500.0,2018-09-12,residential
450,"46 Weymouth Avenue, London, W5 4SB",Non-Newbuild,place,Terraced,0.621,51.4995525278,Freehold,-0.308990488889,1004150.0,2018-09-12,house
451,"42 Avondale Avenue, London, N12 8EN",Non-Newbuild,building,Semi Detached,0.421,51.6339021,Freehold,-0.156992296356,945000.0,2018-09-12,yes
452,"5 Cumberland Place, London, SE6 1LA",Non-Newbuild,highway,Terraced,0.61,51.44189,Freehold,0.0078081,325000.0,2018-09-12,residential
453,"Ground Floor Flat 78 Cornwall Gardens, London, SW7 4AZ",Non-Newbuild,,Flat,,,Leasehold,,1502000.0,2018-09-12,
454,"22 Florence Road, Plaistow, London, E13 0DW",Non-Newbuild,highway,Terraced,0.63,51.528901,Freehold,0.0170442,374000.0,2018-09-12,living_street
455,"Apartment 612 Romney House, 47 Marsham Street, London, SW1P 3DS",Non-Newbuild,,Flat,,,Leasehold,,1495000.0,2018-09-12,
456,"12a Annesley Road, London, SE3 0JX",Non-Newbuild,highway,Flat,0.61,51.4730596,Leasehold,0.0235453,475000.0,2018-09-12,residential
457,"203 Clive Road, London, SE21 8DG",Non-Newbuild,highway,Semi Detached,0.51,51.430727,Freehold,-0.090553,1635000.0,2018-09-12,residential
458,"28a Westbourne Grove, London, W2 5RH",Non-Newbuild,highway,Terraced,0.671239300279,51.5151716,Leasehold,-0.1939312,840000.0,2018-09-12,primary
459,"52 Home Park Road, London, SW19 7HN",Non-Newbuild,highway,Semi Detached,0.71,51.433135,Freehold,-0.199302,1500000.0,2018-09-12,tertiary
460,"34 Eswyn Road, London, SW17 8TP",Non-Newbuild,highway,Terraced,0.51,51.4273528,Freehold,-0.1615309,760000.0,2018-09-12,residential
461,"6 Cuckoo Hall Lane, London, N9 8DJ",Non-Newbuild,highway,Terraced,0.61,51.6363713,Freehold,-0.0475243,470000.0,2018-09-12,residential
462,"12 Sandlings Close, London, SE15 3SY",Non-Newbuild,building,Flat,0.621,51.4680493,Leasehold,-0.0643350633515,248500.0,2018-09-12,yes
463,"43 Canterbury Grove, London, SE27 0NX",Non-Newbuild,highway,Terraced,0.51,51.4319772,Freehold,-0.1119539,700000.0,2018-09-12,residential
464,"50 Belgrave Road, Walthamstow, London, E17 8QE",Non-Newbuild,place,Terraced,0.631,51.5782114158,Freehold,-0.0202563368421,621000.0,2018-09-12,house
465,"173 Plough Way, London, SE16 7FN",Non-Newbuild,highway,Semi Detached,0.51,51.4924095,Freehold,-0.0417934,630000.0,2018-09-12,secondary
466,"54 Stormont Road, London, SW11 5EL",Non-Newbuild,highway,Terraced,0.52,51.4635339,Freehold,-0.1560875,1070000.0,2018-09-12,residential
467,"Flat 9 10 Craven Street, London, WC2N 5PE",Non-Newbuild,,Flat,,,Leasehold,,730000.0,2018-09-12,
468,"45 Beacon Gate, London, SE14 5UB",Non-Newbuild,highway,Flat,0.61,51.4666416,Leasehold,-0.0501377,244000.0,2018-09-12,residential
469,"Flat 51 Teal Court Star Place, London, E1W 1AB",Non-Newbuild,,Flat,,,Leasehold,,1384500.0,2018-09-12,
470,"6 Hope Close, London, N1 2YS",Non-Newbuild,highway,Terraced,0.51,51.5843152,Freehold,0.1280176,1375000.0,2018-09-12,residential
471,"198a Crystal Palace Road, London, SE22 9EP",Non-Newbuild,highway,Flat,0.61,51.4506777,Leasehold,-0.0746717,425000.0,2018-09-12,residential
472,"Flat 36 Switch House, 4 Blackwall Way, London, E14 9QS",Non-Newbuild,,Flat,,,Leasehold,,362000.0,2018-09-12,
473,"Ground Floor Flat 213 Lillie Road, London, SW6 7LW",Non-Newbuild,,Flat,,,Leasehold,,491285.0,2018-09-12,
474,"39a Kings Road, London, E6 1DY",Non-Newbuild,highway,Flat,0.51,51.5351037,Leasehold,0.0359206,240000.0,2018-09-12,residential
475,"74 Connington Crescent, Chingford, London, E4 6LB",Non-Newbuild,,Terraced,,,Freehold,,405000.0,2018-09-12,
476,"23 Shepherds Walk, London, NW2 7BS",Non-Newbuild,highway,Terraced,0.51,51.5671481,Freehold,-0.2401299,465000.0,2018-09-12,residential
477,"96 Oakways, Eltham, London, SE9 2NZ",Non-Newbuild,highway,Flat,0.62,51.449789,Leasehold,0.0660225,330000.0,2018-09-12,residential
478,"67a Broadway Market, London, E8 4PH",Non-Newbuild,highway,Flat,0.706615655401,51.5357372,Leasehold,-0.0622394,420000.0,2018-09-12,tertiary
479,"28 Luton Road, London, E17 5LN",Non-Newbuild,place,Terraced,0.531,51.5901762676,Freehold,-0.0301965794118,592000.0,2018-09-12,house
480,"Flat B46 Du Cane Court Balham High Road, London, SW17 7JE",Non-Newbuild,,Flat,,,Leasehold,,310000.0,2018-09-12,
481,"Flat 15 Hudson Building, 11 Chicksand Street, London, E1 5LD",Non-Newbuild,,Flat,,,Leasehold,,490000.0,2018-09-12,
482,"32a Pyrland Road, London, N5 2JD",Non-Newbuild,highway,Flat,0.51,51.5504631,Leasehold,-0.0864851,842000.0,2018-09-12,residential
483,"100 Bonneville Gardens, London, SW4 9LE",Non-Newbuild,highway,Flat,0.61,51.4533109,Leasehold,-0.14101,645000.0,2018-09-12,residential
484,"55 Herne Hill, London, SE24 9NE",Non-Newbuild,place,Terraced,0.761139325579,51.4554407,Freehold,-0.1001002,1100000.0,2018-09-12,suburb
485,"3 Stroud Road, London, SW19 8DQ",Non-Newbuild,highway,Terraced,0.51,51.4366763,Freehold,-0.1990621,1150000.0,2018-09-12,residential
486,"9 Portelet Road, London, E1 4EL",Non-Newbuild,highway,Terraced,0.51,51.5248745,Freehold,-0.0460281,730000.0,2018-09-12,residential
487,"44 Highcroft Gardens, London, NW11 0LX",Non-Newbuild,highway,Detached,0.51,51.5792767,Freehold,-0.200552,1210000.0,2018-09-12,residential
488,"42 Victoria Drive, London, SW19 6BG",Non-Newbuild,place,Terraced,0.411,41.5482504537,Freehold,-72.4178023043,584120.0,2018-09-12,house
489,"Ground Floor Flat 17 Capel Road, London, E7 0JD",Non-Newbuild,,Flat,,,Leasehold,,340000.0,2018-09-12,
490,"Flat 79 Pinehurst Court, 1 - 3 Colville Gardens, London, W11 2BJ",Non-Newbuild,,Flat,,,Leasehold,,499000.0,2018-09-12,
491,"140 Haydon Park Road, London, SW19 8JT",Non-Newbuild,highway,Terraced,0.62,51.4266776,Freehold,-0.1946017,860000.0,2018-09-12,residential
492,"Flat 1 Oak Lodge, 56 Cambridge Road, London, E11 2PS",Non-Newbuild,,Flat,,,Leasehold,,220000.0,2018-09-12,
493,"4 Gruneisen Road, London, N3 1LU",Non-Newbuild,highway,Terraced,0.61,51.6067464,Freehold,-0.1869444,660000.0,2018-09-12,residential
494,"Flat 15 York Mansions Prince Of Wales Drive, London, SW11 4DN",Non-Newbuild,,Flat,,,Leasehold,,2591000.0,2018-09-12,
495,"Flat 3 121 Brownlow Road, London, N11 2BN",Non-Newbuild,,Flat,,,Leasehold,,344000.0,2018-09-12,
496,"31 Ramillies Road, London, W4 1JW",Non-Newbuild,highway,Semi Detached,0.52,51.498038,Freehold,-0.260887,1300000.0,2018-09-12,residential
497,"48 West Heath Drive, London, NW11 7QH",Non-Newbuild,highway,Semi Detached,0.61,51.5699572,Freehold,-0.1933784,1875000.0,2018-09-12,residential
498,"Flat 102 Harwood Court Upper Richmond Road, London, SW15 6JB",Non-Newbuild,,Flat,,,Leasehold,,309000.0,2018-09-12,
499,"Flat 3 389 Liverpool Road, London, N1 1NP",Non-Newbuild,,Flat,,,Leasehold,,525000.0,2018-09-12,
500,"Flat C 68 Anson Road, London, NW2 6AD",Non-Newbuild,,Flat,,,Leasehold,,300000.0,2018-09-12,
501,"Flat 142 Haven Green Court Haven Green, London, W5 2UX",Non-Newbuild,,Flat,,,Leasehold,,715000.0,2018-09-12,
502,"Putney Wharf Tower Resturant Brewhouse Lane, London, SW15 2NS",Non-Newbuild,,,,,Leasehold,,3210000.0,2018-09-12,
503,"Ground Floor Shop 14 Bellevue Road, London, SW17 7EG",Non-Newbuild,,,,,Leasehold,,10000.0,2018-09-12,
504,"Riverbank House, 123 - 125 Strathville Road, London, SW18 4QW",Non-Newbuild,,,,,Freehold,,12000.0,2018-09-12,
505,"Miller Of Mansfield 96 Snowsfields, London, SE1 3SS",Non-Newbuild,,,,,Freehold,,7100000.0,2018-09-12,
506,"6 Bath Street, London, EC1V 9DX",Non-Newbuild,place,Flat,0.411,41.5254797621,Freehold,-72.0751815242,150000.0,2018-09-12,house
507,"4 Aquila Street, London, NW8 6PN",Non-Newbuild,highway,Flat,0.52,51.5346351,Leasehold,-0.1708858,748875.0,2018-09-12,residential
508,"37 St Alphege Road, London, N9 8BU",Non-Newbuild,highway,Terraced,0.61,51.6360531,Freehold,-0.0489028,280000.0,2018-09-12,residential
509,"40 Coleridge Road, London, E17 6QU",Non-Newbuild,place,Terraced,0.531,51.5876502125,Freehold,-0.028043775,560000.0,2018-09-12,house
510,"938 Chelsea Cloisters Sloane Avenue, London, SW3 3EU",Non-Newbuild,,Flat,,,Leasehold,,630000.0,2018-09-12,
511,"Flat 28 Chelsfield Point Penshurst Road, London, E9 7DY",Non-Newbuild,,Flat,,,Leasehold,,266000.0,2018-09-12,
512,"4 Camden Road, London, NW1 9DL",Non-Newbuild,amenity,,0.621,51.5392946,Leasehold,-0.1419363,20000.0,2018-09-12,fast_food
513,"Basement And Ground Floor Premises 86 Camden High Street, London, NW1 0LT",Non-Newbuild,,,,,Leasehold,,20000.0,2018-09-12,
514,"33 Corporation Street, London, E15 3HB",Non-Newbuild,,Terraced,,,Freehold,,350000.0,2018-09-12,
515,"57 Rolls Park Avenue, London, E4 9DG",Non-Newbuild,highway,Terraced,0.62,51.6101631,Freehold,-0.015835,387500.0,2018-09-12,residential
516,"64 Waterfall Road, London, N14 7LB",Non-Newbuild,highway,Semi Detached,0.51,51.6244491,Freehold,-0.1300155,615000.0,2018-09-11,primary
517,"Flat 24 Dorchester Court Buckingham Road, South Woodford, London, E18 2NG",Non-Newbuild,,Flat,,,Leasehold,,330000.0,2018-09-11,
518,"25 Lawrence Court Adenmore Road, London, SE6 4EA",Non-Newbuild,,Flat,,,Leasehold,,300000.0,2018-09-11,
519,"318 Central Park Road, East Ham, London, E6 3AD",Non-Newbuild,highway,Terraced,0.71,51.5304687,Freehold,0.0519891,370000.0,2018-09-11,residential
520,"First Floor Flat 26 Farlton Road, London, SW18 3BL",Non-Newbuild,,Flat,,,Leasehold,,600000.0,2018-09-11,
521,"7a Healey Street, London, NW1 8SR",Non-Newbuild,highway,Flat,0.51,51.5453135,Leasehold,-0.1454445,740000.0,2018-09-11,residential
522,"19 Choumert Square, London, SE15 4RE",Non-Newbuild,building,Terraced,0.621,51.46837875,Freehold,-0.0685357922695,555000.0,2018-09-11,yes
523,"Flat 20 25 - 27 Farringdon Road, London, EC1M 3HA",Non-Newbuild,,Flat,,,Leasehold,,555000.0,2018-09-11,
524,"Flat 7 15 Breakspears Road, London, SE4 1XW",Non-Newbuild,,Flat,,,Leasehold,,207000.0,2018-09-11,
525,"Apartment 31 Elizabeth Court, 1 Palgrave Gardens, London, NW1 6EJ",Non-Newbuild,,Flat,,,Leasehold,,1050000.0,2018-09-11,
526,"Flat 5 3 Montrell Road, London, SW2 4QD",Non-Newbuild,,Flat,,,Leasehold,,407000.0,2018-09-11,
527,"50 Dumont Road, London, N16 0NS",Non-Newbuild,highway,Terraced,0.51,51.5613666,Freehold,-0.0771078,950000.0,2018-09-11,residential
528,"112 Bickley Street, London, SW17 9NE",Non-Newbuild,highway,Flat,0.51,51.4258239,Leasehold,-0.1668534,468000.0,2018-09-11,residential
529,"59b Commercial Street, London, E1 6BD",Non-Newbuild,highway,Flat,0.726067753329,51.5177226,Leasehold,-0.073846,390000.0,2018-09-11,trunk
530,"Flat C Kimpton Court, 66 Howard Road, London, SE25 5BZ",Non-Newbuild,,Flat,,,Leasehold,,285000.0,2018-09-11,
531,"35 Rixsen Road, London, E12 6RN",Non-Newbuild,highway,Terraced,0.52,51.5471506,Freehold,0.0512883,367000.0,2018-09-11,residential
532,"37 Chadwick Road, London, SE15 4RA",Non-Newbuild,building,Terraced,0.521,51.46821005,Freehold,-0.0713144978409,805000.0,2018-09-11,yes
533,"Flat 26 Sunbury House Swanfield Street, London, E2 7LE",Non-Newbuild,,Flat,,,Leasehold,,710000.0,2018-09-11,
534,"62 Stuart Road, London, SW19 8DH",Non-Newbuild,highway,Terraced,0.51,51.4376918,Freehold,-0.1979109,1195000.0,2018-09-11,residential
535,"58 Lawrence Road, London, E6 1JW",Non-Newbuild,highway,Terraced,0.61,51.5372352,Freehold,0.0490242,365000.0,2018-09-11,residential
536,"12 Abingdon Road, London, N3 2RG",Non-Newbuild,highway,Terraced,0.61,51.5984848,Freehold,-0.1803828,600000.0,2018-09-11,residential
537,"66 Woodlands Road, Walthamstow, London, E17 3LE",Non-Newbuild,highway,Terraced,0.585,51.5900842,Freehold,-0.0008531,699000.0,2018-09-11,service
538,"Flat 4 111 Broadhurst Gardens, London, NW6 3BJ",Non-Newbuild,,Flat,,,Leasehold,,605000.0,2018-09-11,
539,"30 Harris Street, London, E17 8EQ",Non-Newbuild,highway,Flat,0.52,51.5707629,Leasehold,-0.0285537,443500.0,2018-09-11,residential
540,"61 Oakwood Crescent, London, N21 1PA",Non-Newbuild,place,Semi Detached,0.421,51.549569,Freehold,-0.3206804,736750.0,2018-09-11,house
541,"24a Nightingale Lane, London, E11 2HE",Non-Newbuild,highway,Terraced,0.52,51.5825452,Freehold,0.027656,500000.0,2018-09-11,residential
542,"15 Cromwell Road, London, E17 9JN",Non-Newbuild,place,Terraced,0.531,51.5801507137,Freehold,-0.00824168097855,675000.0,2018-09-11,house
543,"139 Edensor Gardens, London, W4 2RF",Non-Newbuild,highway,Flat,0.61,51.4814365,Leasehold,-0.2541219,410000.0,2018-09-11,residential
544,"55 Millais Road, London, E11 4HB",Non-Newbuild,highway,Terraced,0.51,51.5552972,Freehold,-0.000318,570000.0,2018-09-11,residential
545,"34 Watchfield Court, London, W4 4NB",Non-Newbuild,,Flat,,,Leasehold,,635000.0,2018-09-11,
546,"5 Boundary Road, London, E13 9PS",Non-Newbuild,,Terraced,,,Freehold,,410000.0,2018-09-11,
547,"Flat 77 Kingly Building, 18 Woodberry Down, London, N4 2GQ",Newbuild,,Flat,,,Leasehold,,675250.0,2018-09-11,
548,"Flat 21 Parkview Court, 38 Fulham High Street, London, SW6 3LP",Non-Newbuild,,Flat,,,Leasehold,,475000.0,2018-09-11,
549,"37a Holbeach Road, Catford, London, SE6 4TQ",Non-Newbuild,highway,Semi Detached,0.51,51.4467786,Leasehold,-0.0197929,335000.0,2018-09-11,pedestrian
550,"Flat 14 Seaford House Swan Road, London, SE16 4NQ",Non-Newbuild,,Flat,,,Leasehold,,499950.0,2018-09-11,
551,"Flat 3 Dragon Court, 28 Booth Road, London, NW9 5HS",Non-Newbuild,,Flat,,,Leasehold,,255000.0,2018-09-11,
552,"Community Centre Sydenham Hill, London, SE26 6AG",Non-Newbuild,highway,,0.51,51.4375151,Leasehold,-0.063504,74390.0,2018-09-11,tertiary
553,"78 Chelsworth Drive, Plumstead, London, SE18 2RA",Non-Newbuild,highway,Terraced,0.72,51.4780729,Freehold,0.0826184,290000.0,2018-09-11,residential
554,"Flat 6 Chelsea Lodge, 58 Tite Street, London, SW3 4JD",Non-Newbuild,,Flat,,,Leasehold,,1100000.0,2018-09-11,
555,"31 Jarrow Road, London, N17 9PP",Non-Newbuild,highway,Terraced,0.51,51.5840927,Freehold,-0.0598305,450000.0,2018-09-11,residential
556,"1 Winchester Street, London, W3 8PA",Non-Newbuild,place,,0.411,41.520287,Freehold,-72.075384,25000.0,2018-09-11,house
557,"Flat 1 Charfield Court, 2 Shirland Road, London, W9 2JN",Non-Newbuild,,Flat,,,Leasehold,,550000.0,2018-09-11,
558,"Flat 39 Harvard Court Honeybourne Road, London, NW6 1HL",Non-Newbuild,,Flat,,,Leasehold,,605000.0,2018-09-11,
559,"42 Charlotte Street, London, W1T 2NP",Non-Newbuild,highway,,0.650544503166,51.5194605,Leasehold,-0.1357715,135000.0,2018-09-11,residential
560,"11 Festing Road, London, SW15 1LW",Non-Newbuild,highway,Terraced,0.51,51.4695743,Freehold,-0.2221457,1607500.0,2018-09-11,residential
561,"Flat 3 26a Peckham Rye, London, SE15 4JR",Non-Newbuild,,Flat,,,Leasehold,,380000.0,2018-09-11,
562,"10 Grangemill Road, London, SE6 3JY",Non-Newbuild,highway,Semi Detached,0.51,51.4355775,Freehold,-0.0263741,450000.0,2018-09-11,residential
563,"Flat 78 Kingly Building, 18 Woodberry Down, London, N4 2GQ",Newbuild,,Flat,,,Leasehold,,928600.0,2018-09-10,
564,"222 Millfields Road, London, E5 0AR",Non-Newbuild,highway,Terraced,0.52,51.5576641,Freehold,-0.0416914,700000.0,2018-09-10,residential
565,"114 Cambray Road, London, SW12 0EP",Non-Newbuild,highway,Terraced,0.51,51.4453569,Freehold,-0.1365927,930000.0,2018-09-10,residential
566,"Flat 75 Kingly Building, 18 Woodberry Down, London, N4 2GQ",Newbuild,,Flat,,,Leasehold,,1030000.0,2018-09-10,
567,"15 Hobury Street, London, SW10 0JB",Non-Newbuild,highway,Terraced,0.61,51.4830344,Freehold,-0.1790811,4050000.0,2018-09-10,residential
568,"98 Furley Road, London, SE15 1UG",Non-Newbuild,highway,Terraced,0.51,51.4772036,Freehold,-0.0665872,790000.0,2018-09-10,residential
569,"14 Brunswick Avenue, London, N11 1HS",Non-Newbuild,building,Terraced,0.521,51.62289215,Freehold,-0.149429146963,560000.0,2018-09-10,yes
570,"122 Galloway Road, London, W12 0PJ",Non-Newbuild,highway,Terraced,0.61,51.5094219,Freehold,-0.2395211,790000.0,2018-09-10,residential
571,"1 Review Road, London, NW2 7BG",Non-Newbuild,building,Terraced,0.421,51.53262065,Freehold,0.154564395027,540000.0,2018-09-10,yes
572,"69a - 69b Golders Green Road, London, NW11 8EL",Non-Newbuild,highway,Flat,0.61,51.575674,Leasehold,-0.2040652,395000.0,2018-09-10,primary
573,"84 Wrentham Avenue, London, NW10 3HG",Non-Newbuild,building,Semi Detached,0.521,51.53687215,Freehold,-0.216406731711,3810000.0,2018-09-10,yes
574,"12 Marlborough Crescent, London, W4 1HF",Non-Newbuild,highway,Semi Detached,0.52,51.4992708,Freehold,-0.2568423,3150000.0,2018-09-10,residential
575,"7 Parkhill Walk, London, NW3 2YU",Non-Newbuild,highway,Terraced,0.31,51.5612288,Freehold,0.2348297,1400000.0,2018-09-10,residential
576,"Flat 48 Breton House Barbican, London, EC2Y 8DQ",Non-Newbuild,,Flat,,,Leasehold,,510000.0,2018-09-10,
577,"17 Roedean Crescent, London, SW15 5JX",Non-Newbuild,highway,Detached,0.61,51.4565676,Freehold,-0.2576019,3350000.0,2018-09-10,residential
578,"Flat 4 21 - 23 Courtfield Road, London, SW7 4DA",Non-Newbuild,,Flat,,,Leasehold,,488000.0,2018-09-10,
579,"6 Vespan Road, London, W12 9QQ",Non-Newbuild,highway,Terraced,0.61,51.5050542,Freehold,-0.2409534,845000.0,2018-09-10,residential
580,"Flat 3 5 Bernard Street, London, WC1N 1LJ",Non-Newbuild,highway,Flat,0.61,51.5230764,Leasehold,-0.1249831,542500.0,2018-09-10,secondary
581,"68 Morton Close, London, E1 2QT",Non-Newbuild,,Flat,,,Leasehold,,440000.0,2018-09-10,
582,"Flat 1 2 Challoner Crescent, London, W14 9LE",Non-Newbuild,highway,Flat,0.61,51.4882863,Leasehold,-0.2060941,310000.0,2018-09-10,residential
583,"137 Napier Road, London, N17 6YQ",Non-Newbuild,highway,Flat,0.51,51.5922193,Leasehold,-0.0764657,125000.0,2018-09-10,residential
584,"22 Eaton Mews North, London, SW1X 8AR",Non-Newbuild,highway,Terraced,0.71,51.4965482,Freehold,-0.1529571,2400000.0,2018-09-10,residential
585,"29b Langham Road, London, N15 3QX",Non-Newbuild,highway,Flat,0.51,51.588236,Leasehold,-0.0935717,341500.0,2018-09-10,tertiary
586,"Flat 25 Marlborough House, 179 - 189 Finchley Road, London, NW3 6LB",Non-Newbuild,,Flat,,,Leasehold,,675000.0,2018-09-10,
587,"276 Strone Road, London, E12 6TP",Non-Newbuild,highway,Terraced,0.61,51.5442526,Freehold,0.0416405,487000.0,2018-09-10,residential
588,"Flat 2 37 Queensborough Terrace, London, W2 3SY",Non-Newbuild,highway,Flat,0.61,51.5126454,Leasehold,-0.1855782,860000.0,2018-09-10,residential
589,"Flat 88 Fable Apartments, 261c City Road, London, EC1V 1AP",Non-Newbuild,,Flat,,,Leasehold,,251000.0,2018-09-10,
590,"Flat G 10 Prior Bolton Street, London, N1 2NX",Non-Newbuild,,Flat,,,Leasehold,,810000.0,2018-09-10,
591,"1 Bunkers Hill, London, NW11 6XA",Non-Newbuild,place,Semi Detached,0.65,-32.9961111,Freehold,27.9305556,2000000.0,2018-09-10,suburb
592,"38 Cavendish Road, London, N4 1RT",Non-Newbuild,place,Terraced,0.421,51.6064439,Freehold,-0.003017,810000.0,2018-09-10,house
593,"7 Ingle Mews, London, EC1R 1XG",Non-Newbuild,highway,Flat,0.585,51.5300006,Leasehold,-0.1097422,675000.0,2018-09-10,service
594,"3 Macdonald Road, London, E17 4AY",Non-Newbuild,place,Terraced,0.531,51.5950017857,Freehold,-0.00520208571429,450000.0,2018-09-10,house
595,"Flat 10 Apex Court, 1 Woodger Road, London, W12 8NW",Non-Newbuild,,Flat,,,Leasehold,,361000.0,2018-09-10,
596,"54 Endlebury Road, London, E4 6QG",Non-Newbuild,,Semi Detached,,,Freehold,,745000.0,2018-09-10,
597,"Flat 71 Pelham Court, 145 Fulham Road, London, SW3 6SH",Non-Newbuild,,Flat,,,Leasehold,,1100000.0,2018-09-10,
598,"13 Glyn Road, London, E5 0JB",Non-Newbuild,place,Terraced,0.521,51.5493944838,Freehold,-0.0400651783784,906000.0,2018-09-10,house
599,"97 Hamilton Road, London, SE27 9SE",Non-Newbuild,place,Terraced,0.421,42.9825421286,Freehold,-81.2327841429,590000.0,2018-09-10,house
600,"Flat 1 Granville Court Harvel Crescent, London, SE2 0QL",Non-Newbuild,,Flat,,,Leasehold,,236500.0,2018-09-10,
601,"301 Lordship Lane, London, SE22 8JH",Non-Newbuild,building,Semi Detached,0.521,51.4517023,Freehold,-0.0763761765762,1250000.0,2018-09-10,yes
602,"5 Mentmore Terrace, London, E8 3PN",Non-Newbuild,highway,,0.51,51.5401573,Freehold,-0.0577556,750000.0,2018-09-10,residential
603,"24 Selhurst Close, London, SW19 6AZ",Non-Newbuild,highway,Flat,0.51,51.4430803,Leasehold,-0.2218961,425000.0,2018-09-10,residential
604,"139 Replingham Road, London, SW18 5LX",Non-Newbuild,highway,Flat,0.51,51.4453601,Leasehold,-0.2019373,598000.0,2018-09-10,tertiary
605,"7 Porch Way, London, N20 0DS",Non-Newbuild,highway,Flat,0.61,51.6244348,Leasehold,-0.1574097,370000.0,2018-09-10,residential
606,"Flat 4 11 Lower Marsh, London, SE1 7RJ",Non-Newbuild,,Flat,,,Leasehold,,860000.0,2018-09-10,
607,"6 Royle Crescent, London, W13 0BH",Non-Newbuild,highway,Semi Detached,0.52,51.5256407,Freehold,-0.3265634,650000.0,2018-09-10,residential
608,"4 Harpenden Road, West Norwood, London, SE27 0AE",Non-Newbuild,highway,Flat,0.71,51.4367534,Leasehold,-0.1071542,341500.0,2018-09-10,residential
609,"18 Lordship Lane, London, SE22 8HN",Non-Newbuild,shop,,0.621,51.4600013,Leasehold,-0.0754222,998.0,2018-09-10,convenience
610,"Flat 1 14 Stanley Street, London, SE8 4BG",Non-Newbuild,highway,Flat,0.61,51.4769299,Leasehold,-0.0313177,432000.0,2018-09-10,residential
611,"41 Arnal Crescent, London, SW18 5PX",Non-Newbuild,highway,Flat,0.61,51.4502005,Leasehold,-0.2114943,280000.0,2018-09-10,residential
612,"C 9 Kings Grove, London, SE15 2LY",Non-Newbuild,highway,Flat,0.51,51.4758222,Leasehold,-0.0588627,358000.0,2018-09-10,residential
613,"413 Green Lanes, London, N13 4JD",Non-Newbuild,amenity,,0.421,51.5783826,Freehold,-0.0991306,2500000.0,2018-09-10,fast_food
614,"Flat 13 Westwood House, 47 Old Devonshire Road, London, SW12 9RF",Non-Newbuild,,Flat,,,Leasehold,,640000.0,2018-09-10,
615,"17 Marjorie Grove, London, SW11 5SH",Non-Newbuild,building,,0.621,51.46251865,Freehold,-0.159343057483,5200.0,2018-09-10,yes
616,"153 Nightingale Place, London, SE18 4HW",Non-Newbuild,highway,Flat,0.61,51.482244,Leasehold,0.0659753,199999.0,2018-09-10,tertiary
617,"55 Woodhouse Road, London, E11 3NU",Non-Newbuild,,,,,Freehold,,500000.0,2018-09-10,
618,"Flat 1 138 Trundleys Road, London, SE8 5JG",Non-Newbuild,,Flat,,,Leasehold,,290000.0,2018-09-10,
619,"Flat 50 Moineau The Concourse, London, NW9 5UR",Non-Newbuild,,Flat,,,Leasehold,,200000.0,2018-09-10,
620,"Apartment 503 Walpole Lodge, 7 Plaza Gardens, London, SW15 2DP",Non-Newbuild,,Flat,,,Leasehold,,180000.0,2018-09-10,
621,"Flat 4 Mayford Oakley Square, London, NW1 1NX",Non-Newbuild,,Flat,,,Leasehold,,555000.0,2018-09-10,
622,"Flat 702 Siddal Apartments, 6 Heygate Street, London, SE17 1FQ",Non-Newbuild,,Flat,,,Leasehold,,770000.0,2018-09-10,
623,"27 St Annes Court, London, W1F 0BN",Non-Newbuild,amenity,,0.611,51.5146535,Leasehold,-0.133437749052,210000.0,2018-09-10,restaurant
624,"Flat 2 34 Shrubbery Road, Streatham, London, SW16 2AT",Non-Newbuild,,Flat,,,Leasehold,,355000.0,2018-09-10,
625,"56 Shirlock Road, London, NW3 2HS",Non-Newbuild,highway,Terraced,0.51,51.5557024,Freehold,-0.1576293,1910000.0,2018-09-10,residential
626,"Flat A37 Parliament View Apartments, 1 Albert Embankment, London, SE1 7XH",Non-Newbuild,,Flat,,,Leasehold,,1100000.0,2018-09-10,
627,"14 Allingham Street, London, N1 8NY",Non-Newbuild,highway,Terraced,0.52,51.5342927,Freehold,-0.0982169,1355000.0,2018-09-10,residential
628,"33 Lower Downs Road, London, SW20 8QQ",Non-Newbuild,highway,Semi Detached,0.71,51.4121657,Freehold,-0.2188506,830000.0,2018-09-10,tertiary
629,"11 Gunnersbury Manor Elm Avenue, London, W5 3XB",Non-Newbuild,,,,,Leasehold,,410000.0,2018-09-10,
630,"9a Hargrave Road, London, N19 5SH",Non-Newbuild,highway,Flat,0.51,51.5644425,Leasehold,-0.1323766,507500.0,2018-09-07,residential
631,"Flat 21 Keepier Wharf, 12 Narrow Street, London, E14 8DH",Non-Newbuild,,Flat,,,Leasehold,,1640000.0,2018-09-07,
632,"20 Treves Close, London, N21 1TT",Non-Newbuild,highway,Flat,0.51,51.6457233,Leasehold,-0.1131688,275000.0,2018-09-07,residential
633,"19a Tournay Road, London, SW6 7UG",Non-Newbuild,highway,Terraced,0.51,51.4818367,Leasehold,-0.2023288,780000.0,2018-09-07,residential
634,"16 Falcon Court, London, N1 8EY",Non-Newbuild,,Flat,,,Leasehold,,525000.0,2018-09-07,
635,"74 Verulam Court Woolmead Avenue, London, NW9 7AW",Non-Newbuild,,Flat,,,Leasehold,,270000.0,2018-09-07,
636,"38b Windsor Road, London, E10 5LR",Non-Newbuild,,Flat,,,Leasehold,,430000.0,2018-09-07,
637,"21 Kenilworth Road, London, W5 5PA",Non-Newbuild,highway,Semi Detached,0.61,51.5082521,Freehold,-0.3000583,1650000.0,2018-09-07,residential
638,"5b Abercorn Road, London, NW7 1JD",Non-Newbuild,highway,Terraced,0.51,51.6044532,Freehold,-0.2027152,615000.0,2018-09-07,residential
639,"Flat 25 398 Seven Sisters Road, London, N4 2EP",Non-Newbuild,,Flat,,,Leasehold,,575000.0,2018-09-07,
640,"31 Millson Close, London, N20 0LQ",Non-Newbuild,highway,Terraced,0.61,51.6278775,Freehold,-0.1698289,493500.0,2018-09-07,residential
641,"Flat 1 Sullivan Court, 2 Eric Street, London, E3 4HG",Non-Newbuild,,Flat,,,Leasehold,,476500.0,2018-09-07,
642,"61a Tudor Road, London, E9 7SN",Non-Newbuild,highway,Flat,0.61,51.5386785,Leasehold,-0.0545807,425000.0,2018-09-07,uncategoryified
643,"Flat 2 15 Whitehall Park, London, N19 3TS",Non-Newbuild,highway,Flat,0.51,51.5701853,Leasehold,-0.1357247,577000.0,2018-09-07,residential
644,"55 Bemsted Road, London, E17 5JY",Non-Newbuild,place,Flat,0.531,51.5914992579,Leasehold,-0.0263357263158,429000.0,2018-09-07,house
645,"75 St Elmo Road, London, W12 9DZ",Non-Newbuild,highway,Flat,0.71,51.5050438,Leasehold,-0.245757,505000.0,2018-09-07,residential
646,"54 Artizan Court Noel Park Road, London, N22 6ED",Non-Newbuild,,Flat,,,Leasehold,,330000.0,2018-09-07,
647,"10 Kensington Close, London, N11 3PU",Non-Newbuild,highway,Terraced,0.61,51.6117127,Freehold,-0.1455515,575000.0,2018-09-07,residential
648,"57a Hestercombe Avenue, London, SW6 5LL",Non-Newbuild,highway,Flat,0.51,51.4741759,Leasehold,-0.2089036,805000.0,2018-09-07,residential
649,"Flat 3 12 Lexham Gardens, London, W8 5JE",Non-Newbuild,,Flat,,,Leasehold,,600000.0,2018-09-07,
650,"Flat C 25 Trebovir Road, London, SW5 9NF",Non-Newbuild,,Flat,,,Leasehold,,1160000.0,2018-09-07,
651,"10 St Andrews Mews, London, N16 5HX",Non-Newbuild,highway,Terraced,0.61,51.5703689,Freehold,-0.0795383,750000.0,2018-09-07,residential
652,"24 Asland Road, London, E15 3LL",Non-Newbuild,highway,Terraced,0.61,51.535132,Freehold,0.0030976,499999.0,2018-09-07,residential
653,"18 Everest Road, London, SE9 6PX",Non-Newbuild,highway,Semi Detached,0.61,51.4543751,Freehold,0.0493914,700000.0,2018-09-07,residential
654,"60 Vernon Road, Leytonstone, London, E11 4QU",Non-Newbuild,highway,Terraced,0.63,51.5675076,Freehold,0.008189,600000.0,2018-09-07,residential
655,"20 Crothall Close, London, N13 4BN",Non-Newbuild,highway,Detached,0.61,51.625256,Freehold,-0.1117452,750000.0,2018-09-07,residential
656,"45 Ellerby Street, London, SW6 6EU",Non-Newbuild,highway,Semi Detached,0.61,51.4749803,Freehold,-0.2176005,3150000.0,2018-09-07,residential
657,"Lower Cottage Daws Hill, London, E4 7QU",Non-Newbuild,,Detached,,,Freehold,,1075000.0,2018-09-07,
658,"45 Halstead Road, London, E11 2AY",Non-Newbuild,highway,Semi Detached,0.52,51.5828043,Freehold,0.0273053,811000.0,2018-09-07,residential
659,"5 Woodland Hill, London, SE19 1PB",Non-Newbuild,highway,Flat,0.52,51.4218068,Freehold,-0.0821235,745000.0,2018-09-07,residential
660,"100 Bream Close, London, N17 9DQ",Non-Newbuild,highway,Flat,0.61,51.5856913,Leasehold,-0.0559194,332000.0,2018-09-07,residential
661,"Apartment 140 Burford Wharf Apartments, 3 Cam Road, London, E15 2SS",Non-Newbuild,,Flat,,,Leasehold,,150500.0,2018-09-07,
662,"258 Broad Walk, Kidbrooke, London, SE3 8NQ",Non-Newbuild,highway,Semi Detached,0.61,51.4686587,Freehold,0.0468899,578000.0,2018-09-07,tertiary
663,"56 Templeton Avenue, London, E4 6SP",Non-Newbuild,highway,Terraced,0.52,51.6188874,Freehold,-0.0144746,425000.0,2018-09-07,residential
664,"150 The Avenue, London, E4 9RD",Non-Newbuild,landuse,Semi Detached,0.51,51.6034693,Freehold,0.0734667420532,970000.0,2018-09-07,residential
665,"49 Scotts Road, London, E10 6LN",Non-Newbuild,highway,Terraced,0.41,51.5017343,Freehold,-0.396516,650000.0,2018-09-07,residential
666,"12 Lens Road, London, E7 8PU",Non-Newbuild,highway,Terraced,0.61,51.5392121,Freehold,0.0349211,300000.0,2018-09-07,residential
667,"Flat 3 279 Forest Road, Leytonstone, London, E11 1GE",Non-Newbuild,,Flat,,,Leasehold,,120000.0,2018-09-07,
668,"Flat 13 Tasman Court, 244 Westferry Road, London, E14 3QJ",Non-Newbuild,,Flat,,,Leasehold,,440000.0,2018-09-07,
669,"70 Mast House Terrace, London, E14 3RN",Non-Newbuild,highway,Terraced,0.71,51.4896485,Freehold,-0.0231732,740000.0,2018-09-07,residential
670,"Flat 37 Dundee Court, 73 Wapping High Street, London, E1W 2YG",Non-Newbuild,,Flat,,,Leasehold,,915000.0,2018-09-07,
671,"Flat 133 Berglen Court, 7 Branch Road, London, E14 7JY",Non-Newbuild,,Flat,,,Leasehold,,640000.0,2018-09-07,
672,"1 Byland Close, London, N21 1QH",Non-Newbuild,highway,Flat,0.71,51.6384705,Leasehold,-0.1142558,452500.0,2018-09-07,residential
673,"Flat 31 Jackman House Watts Street, London, E1W 2PU",Non-Newbuild,,Flat,,,Leasehold,,400000.0,2018-09-07,
674,"84 Chesterford Road, London, E12 6LB",Non-Newbuild,,Terraced,,,Freehold,,377500.0,2018-09-07,
675,"13a Ramillies Road, London, W4 1JW",Non-Newbuild,highway,Semi Detached,0.52,51.498038,Freehold,-0.260887,1600000.0,2018-09-07,residential
676,"Flat 58 Boscobel House Royal Oak Road, London, E8 1BU",Non-Newbuild,,Flat,,,Leasehold,,440000.0,2018-09-07,
677,"27 Rosedene Terrace, Leyton, London, E10 5LS",Non-Newbuild,highway,Detached,0.63,51.563293,Freehold,-0.0139087,585000.0,2018-09-07,residential
678,"25b Chislehurst Avenue, London, N12 0HU",Non-Newbuild,highway,Flat,0.51,51.6073408,Leasehold,-0.1803069,430000.0,2018-09-07,residential
679,"6 The Hollies, London, N11 2EA",Non-Newbuild,place,Flat,0.221,51.5421269167,Leasehold,-0.0557537666667,425000.0,2018-09-07,house
680,"112 Marlborough Avenue, London, E8 4SL",Non-Newbuild,place,Flat,0.421,42.9704135286,Leasehold,-81.2141347857,361500.0,2018-09-07,house
681,"5 Reedham Close, London, N17 9PX",Non-Newbuild,highway,Flat,0.51,51.5864993,Leasehold,-0.0571565,400000.0,2018-09-07,residential
682,"7 Clematis Apartments Merchant Street, London, E3 4PQ",Non-Newbuild,,Flat,,,Leasehold,,370000.0,2018-09-07,
683,"38 Voluntary Place, London, E11 2RP",Non-Newbuild,highway,Terraced,0.61,51.5766544,Freehold,0.0208316,466000.0,2018-09-07,residential
684,"Ground Floor Flat 42 Macfarlane Road, London, W12 7JZ",Non-Newbuild,,Flat,,,Leasehold,,420000.0,2018-09-07,
685,"6 Stocksfield Road, London, E17 3LJ",Non-Newbuild,highway,Flat,0.52,51.5880828,Leasehold,-0.0028028,312500.0,2018-09-07,residential
686,"72 Alders Close, London, E11 3RZ",Non-Newbuild,highway,Flat,0.61,51.5637662,Leasehold,0.0272999,330000.0,2018-09-07,residential
687,"Flat 359 Latymer Court Hammersmith Road, London, W6 7LH",Non-Newbuild,,Flat,,,Leasehold,,446000.0,2018-09-07,
688,"27 Holland Road, East Ham, London, E6 2EW",Non-Newbuild,highway,Terraced,0.61,51.536742,Freehold,0.0614623,380000.0,2018-09-07,residential
689,"27 Huxley Road, London, E10 5QT",Non-Newbuild,,Flat,,,Leasehold,,436125.0,2018-09-07,
690,"Flat 59 Chelsea Vista The Boulevard, London, SW6 2SD",Non-Newbuild,,Flat,,,Leasehold,,665000.0,2018-09-07,
691,"Clock House, 7 Brewery Square, London, EC1V 4LE",Non-Newbuild,,Terraced,,,Freehold,,3300000.0,2018-09-07,
692,"16 Montpelier Gardens, London, E6 3JD",Non-Newbuild,highway,Terraced,0.52,51.5277704,Freehold,0.045432,440000.0,2018-09-07,residential
693,"Flat 4 65 Cadogan Gardens, London, SW3 2RA",Non-Newbuild,highway,Flat,0.51,51.4929496,Leasehold,-0.1593379,490000.0,2018-09-07,residential
694,"7a Dunsmure Road, London, N16 5PU",Non-Newbuild,highway,Flat,0.51,51.5705781,Leasehold,-0.0782552,595000.0,2018-09-07,tertiary
695,"Flat 3 Cleeve House Calvert Avenue, London, E2 7JJ",Non-Newbuild,,Flat,,,Leasehold,,805000.0,2018-09-07,
696,"Ground Floor Flat Greyhound Road, London, N17 6XN",Non-Newbuild,,Flat,,,Leasehold,,380000.0,2018-09-07,
697,"Flat 1 13 Chadwick Road, London, E11 1NE",Non-Newbuild,,Flat,,,Leasehold,,487500.0,2018-09-07,
698,"48a Palmerston Road, Walthamstow, London, E17 6PG",Non-Newbuild,highway,Flat,0.52,51.5829348,Leasehold,-0.0280702,297000.0,2018-09-07,tertiary
699,"27 Hollingbourne Road, London, SE24 9NB",Non-Newbuild,building,Semi Detached,0.531,51.45460375,Freehold,-0.0962799898124,1390000.0,2018-09-07,yes
700,"3 71a Harvist Road, London, NW6 6EX",Non-Newbuild,highway,Flat,0.51,51.5335,Leasehold,-0.2110071,435000.0,2018-09-07,secondary
701,"Flat P4 50 St Edmunds Terrace, London, NW8 7ED",Non-Newbuild,,Flat,,,Leasehold,,4000000.0,2018-09-07,
702,"153 Harbut Road, London, SW11 2RD",Non-Newbuild,highway,Terraced,0.585,51.4622767,Freehold,-0.1787272,1130000.0,2018-09-07,cycleway
703,"Flat 21 Widford House Colebrooke Row, London, N1 8DD",Non-Newbuild,,Flat,,,Leasehold,,690000.0,2018-09-07,
704,"69 George Crescent, London, N10 1AL",Non-Newbuild,highway,Semi Detached,0.51,51.6034313,Freehold,-0.150429,500000.0,2018-09-07,residential
705,"Flat 5 66 Plender Street, London, NW1 0LB",Non-Newbuild,,Flat,,,Leasehold,,625000.0,2018-09-07,
706,"Third Floor Flat 146 Elgin Avenue, London, W9 2NT",Non-Newbuild,,Flat,,,Leasehold,,925000.0,2018-09-07,
707,"Flat 129 Rossmore Court Park Road, London, NW1 6XZ",Non-Newbuild,,Flat,,,Leasehold,,500000.0,2018-09-07,
708,"93a Saltram Crescent, Maida Vale, London, W9 3JS",Non-Newbuild,highway,Terraced,0.51,51.5302476,Leasehold,-0.1985479,615000.0,2018-09-07,residential
709,"11 Cumberland Terrace, London, NW1 4HS",Non-Newbuild,highway,Flat,0.614364243565,51.5327379,Leasehold,-0.1460985,2300000.0,2018-09-07,residential
710,"Flat 20 Philip House Denham Road, London, N20 0DL",Non-Newbuild,,Flat,,,Leasehold,,260000.0,2018-09-07,
711,"151 Highbury Quadrant, London, N5 2TG",Non-Newbuild,highway,Flat,0.51,51.558464,Leasehold,-0.0945946,437500.0,2018-09-07,residential
712,"Flat 29 Belgravia Court, 33 Ebury Street, London, SW1W 0NY",Non-Newbuild,,Flat,,,Leasehold,,510000.0,2018-09-07,
713,"23 Compton Close, London, NW1 3QS",Non-Newbuild,highway,Flat,0.51,51.5625663,Leasehold,-0.2139686,570000.0,2018-09-07,residential
714,"Flat 1 413 Goldhawk Road, London, W6 0SA",Non-Newbuild,,Flat,,,Leasehold,,300000.0,2018-09-07,
715,"24 Graham Road, London, N15 3NL",Non-Newbuild,highway,Terraced,0.61,51.5909015,Freehold,-0.1010064,520000.0,2018-09-07,residential
716,"12 Cadoxton Avenue, London, N15 6LB",Non-Newbuild,highway,Terraced,0.51,51.577444,Freehold,-0.0702317,775000.0,2018-09-07,residential
717,"45 Mount Echo Avenue, London, E4 7JX",Non-Newbuild,highway,Terraced,0.62,51.6287817,Freehold,-0.0107678,485000.0,2018-09-07,residential
718,"1 Keswick Mews, London, W5 5PG",Non-Newbuild,highway,Terraced,0.61,51.5070966,Freehold,-0.3002081,945000.0,2018-09-07,residential
719,"26 Nightingale Road, London, N22 8PU",Non-Newbuild,highway,Terraced,0.51,51.6030664,Freehold,-0.1165894,540000.0,2018-09-07,residential
720,"Flat 94 Blenheim Court Marlborough Road, London, N19 4HU",Non-Newbuild,,Flat,,,Leasehold,,460000.0,2018-09-07,
721,"Flat 58 Charlbert Court Charlbert Street, London, NW8 7DB",Non-Newbuild,,Flat,,,Leasehold,,630000.0,2018-09-07,
722,"73 Hazelwood Lane, London, N13 5HE",Non-Newbuild,highway,Terraced,0.51,51.6171684,Freehold,-0.1003109,597500.0,2018-09-07,residential
723,"76 Vernon Road, Stratford, London, E15 4DG",Non-Newbuild,building,Terraced,0.521,51.5406745,Freehold,0.00740640301754,440000.0,2018-09-07,yes
724,"Flat 2 98 Tollington Way, London, N7 6RY",Non-Newbuild,,Flat,,,Leasehold,,540000.0,2018-09-07,
725,"18 Southwood Avenue, London, N6 5RZ",Non-Newbuild,highway,Terraced,0.41,51.41520595,Freehold,-0.26990806762,3100000.0,2018-09-07,residential
726,"Flat 388 Holly Lodge Mansions Oakeshott Avenue, London, N6 6ED",Non-Newbuild,,Flat,,,Leasehold,,550000.0,2018-09-07,
727,"Flat 6 6 Upper John Street, London, W1F 9HB",Non-Newbuild,highway,Flat,0.5,8.8838177,Leasehold,-12.0459833,1050000.0,2018-09-07,tertiary
728,"366 Greenford Avenue, London, W7 3DA",Non-Newbuild,highway,Semi Detached,0.53,51.525369,Freehold,-0.3415454,542000.0,2018-09-07,tertiary
729,"Flat 19 Fletcher Buildings Martlett Court, London, WC2B 5EU",Non-Newbuild,,Flat,,,Leasehold,,660000.0,2018-09-07,
730,"118 Glengall Road, London, NW6 7HH",Non-Newbuild,building,Terraced,0.521,51.53913055,Freehold,-0.200997311281,1300000.0,2018-09-07,yes
731,"24 Litchfield Way, London, NW11 6NJ",Non-Newbuild,highway,Semi Detached,0.51,51.5835491,Freehold,-0.1821768,1500000.0,2018-09-07,residential
732,"Flat 19 Chaville Court Beaconsfield Road, London, N11 3AH",Non-Newbuild,,Flat,,,Leasehold,,322500.0,2018-09-07,
733,"20 Bramerton Street, London, SW3 5JX",Non-Newbuild,highway,Terraced,0.51,51.4850499,Freehold,-0.1704782,2650000.0,2018-09-07,residential
734,"Garden Flat 32 Sinclair Road, London, W14 0NH",Non-Newbuild,,Flat,,,Leasehold,,780000.0,2018-09-07,
735,"Flat 2 2 - 3 Ladbroke Square, London, W11 3LX",Non-Newbuild,,Flat,,,Leasehold,,614500.0,2018-09-07,
736,"Flat 394 Holly Lodge Mansions Oakeshott Avenue, London, N6 6ED",Non-Newbuild,,Flat,,,Leasehold,,340000.0,2018-09-07,
737,"49 Brookland Rise, London, NW11 6DT",Non-Newbuild,highway,Detached,0.61,51.5891664,Freehold,-0.188455,1165000.0,2018-09-07,residential
738,"9 Brewers Court, 20 Bishops Bridge Road, London, W2 6AB",Non-Newbuild,,Flat,,,Leasehold,,390000.0,2018-09-07,
739,"6 175 - 177 Sutherland Avenue, London, W9 1ET",Non-Newbuild,highway,Flat,0.52,51.5279446,Leasehold,-0.1822506,985000.0,2018-09-07,tertiary
740,"Flat C 74 Crouch Hill, London, N8 9EE",Non-Newbuild,,Flat,,,Leasehold,,575000.0,2018-09-07,
741,"26 Allenswood Road, London, SE9 6RP",Non-Newbuild,highway,Semi Detached,0.51,51.4652286,Freehold,0.0502996,397000.0,2018-09-07,residential
742,"25 Oxford Court Elmfield Way, London, W9 3UG",Non-Newbuild,,Flat,,,Leasehold,,396000.0,2018-09-07,
743,"77 Eastbournia Avenue, London, N9 0RU",Non-Newbuild,highway,Terraced,0.51,51.6236808,Freehold,-0.0514848,392500.0,2018-09-07,residential
744,"21 Hendham Road, London, SW17 7DH",Non-Newbuild,highway,Terraced,0.52,51.4389393,Freehold,-0.1684424,1590000.0,2018-09-07,residential
745,"121 Hambalt Road, London, SW4 9EL",Non-Newbuild,highway,Semi Detached,0.61,51.4537739,Freehold,-0.1370791,1035000.0,2018-09-07,residential
746,"76 Carlton Hill, London, NW8 0ET",Non-Newbuild,highway,Semi Detached,0.4,53.80679645,Freehold,-1.54449144384,6300000.0,2018-09-07,residential
747,"Flat 2 9 Ockendon Road, London, N1 3NN",Non-Newbuild,highway,Flat,0.51,51.541444,Leasehold,0.2699379,600000.0,2018-09-07,secondary
748,"Flat 3 14 Fawley Road, London, NW6 1SH",Non-Newbuild,highway,Flat,0.51,51.5501121,Leasehold,-0.1899463,490000.0,2018-09-07,residential
749,"44 Bolton Road, London, E15 4JY",Non-Newbuild,building,Terraced,0.621,51.54237765,Freehold,0.0161874890887,565000.0,2018-09-07,yes
750,"30 Chapel Side, London, W2 4LL",Non-Newbuild,highway,Flat,0.51,51.5117394,Leasehold,-0.1916178,579000.0,2018-09-07,uncategoryified
751,"63b Fairbridge Road, London, N19 3EP",Non-Newbuild,highway,Flat,0.61,51.5664383,Leasehold,-0.1266358,738000.0,2018-09-07,residential
752,"18 Waldemar Road, London, SW19 7LJ",Non-Newbuild,highway,Terraced,0.61,51.4280375,Freehold,-0.2013575,1140000.0,2018-09-07,residential
753,"12 Boscombe Road, London, SW19 3AX",Non-Newbuild,highway,Terraced,0.51,51.504962,Freehold,-0.2366447,954000.0,2018-09-07,residential
754,"Flat 5 12 Hall Road, London, NW8 9RA",Non-Newbuild,,Flat,,,Leasehold,,967500.0,2018-09-07,
755,"4 Rutlish Road, London, SW19 3AL",Non-Newbuild,highway,Terraced,0.61,51.4136177,Freehold,-0.2004615,848500.0,2018-09-07,residential
756,"54 Ross Road, South Norwood, London, SE25 6SB",Non-Newbuild,highway,Terraced,0.71,51.4028696,Freehold,-0.0880468,490000.0,2018-09-07,residential
757,"11 Coopers Lane, London, E10 5DG",Non-Newbuild,highway,Terraced,0.52,51.5693073,Freehold,-0.0100941,475000.0,2018-09-07,residential
758,"45 Westfields Avenue, London, SW13 0AT",Non-Newbuild,highway,Terraced,0.52,51.4692415,Freehold,-0.2517298,1275000.0,2018-09-07,residential
759,"93 Durham Road, London, SW20 0DF",Non-Newbuild,highway,Flat,0.51,51.4126036,Leasehold,-0.2335753,518500.0,2018-09-07,secondary
760,"72 Chesterfield Gardens, London, N4 1LP",Non-Newbuild,highway,Terraced,0.61,51.5803244,Freehold,-0.0959806,660000.0,2018-09-07,residential
761,"8 Rowben Close, London, N20 8QR",Non-Newbuild,building,Detached,0.621,51.6327259,Freehold,-0.185133240436,1100000.0,2018-09-07,yes
762,"42 Gresham Way, London, SW19 8ED",Non-Newbuild,highway,Flat,0.61,51.4358989,Leasehold,-0.1959712,354760.0,2018-09-07,residential
763,"Flat 1502 20 Palace Street, London, SW1E 5BB",Non-Newbuild,,Flat,,,Leasehold,,5900000.0,2018-09-07,
764,"156 East Dulwich Grove, East Dulwich, London, SE22 8TB",Non-Newbuild,highway,Detached,0.81,51.4579325,Freehold,-0.0821486,1615000.0,2018-09-07,primary
765,"74 Briscoe Road, London, SW19 2AQ",Non-Newbuild,highway,Flat,0.51,51.422163,Leasehold,-0.1763734,520000.0,2018-09-07,residential
766,"Flat 19 Kirkeby Building Bourne Estate, London, EC1N 7UN",Non-Newbuild,,Flat,,,Leasehold,,625000.0,2018-09-07,
767,"109 Dallinger Road, London, SE12 0TQ",Non-Newbuild,highway,Terraced,0.61,51.4486708,Freehold,0.0112281,700000.0,2018-09-07,residential
768,"14 Woodside Road, London, SE25 5DY",Non-Newbuild,highway,Semi Detached,0.51,51.4290633,Freehold,0.088523,395000.0,2018-09-07,residential
769,"37 Lister Gardens, London, N18 1JA",Non-Newbuild,highway,Terraced,0.51,51.6139429,Freehold,-0.0894993,447500.0,2018-09-07,residential
770,"103 Dairsie Road, London, SE9 1XL",Non-Newbuild,highway,Semi Detached,0.51,51.4625377,Freehold,0.0626499,525000.0,2018-09-07,residential
771,"43 Stanger Road, London, SE25 5LD",Non-Newbuild,highway,Flat,0.51,51.3952793,Leasehold,-0.0704454,275000.0,2018-09-07,residential
772,"Flat 345 Russell Court Woburn Place, London, WC1H 0NG",Non-Newbuild,,Flat,,,Leasehold,,570000.0,2018-09-07,
773,"128 Cranston Road, Forest Hill, London, SE23 2EY",Non-Newbuild,highway,Terraced,0.51,51.4380721,Freehold,-0.0422326,680000.0,2018-09-07,tertiary
774,"Flat 2 223 Selhurst Road, London, SE25 6XY",Non-Newbuild,,Flat,,,Leasehold,,275000.0,2018-09-07,
775,"Flat 2 Byron Court Fairfax Road, London, NW6 4HB",Non-Newbuild,,Flat,,,Leasehold,,920000.0,2018-09-07,
776,"46 Woodland Terrace, London, SE7 8EN",Non-Newbuild,highway,Terraced,0.51,51.4890342,Freehold,0.0465406,618000.0,2018-09-07,residential
777,"86 Milford Close, London, SE2 0DT",Non-Newbuild,highway,Flat,0.61,51.4804374,Leasehold,0.1350645,260000.0,2018-09-07,residential
778,"29a Neal Street, London, WC2H 9PR",Non-Newbuild,highway,Terraced,0.41,51.5138447,Leasehold,-0.1249437,1825000.0,2018-09-07,pedestrian
779,"3 Jeypore Road, London, SW18 2RJ",Non-Newbuild,highway,Terraced,0.61,51.4505598,Freehold,-0.1844061,1145000.0,2018-09-07,residential
