,addresses,build_status,category,flat_type,importance,latitude,lease_type,longitude,prices,sale_dates,subcategory
0,"49 Downsfield Road, London, E17 8BY",Non-Newbuild,highway,Terraced,0.5199999999999999,51.57634,Freehold,-0.0316566,560000.0,2018-10-29,residential
1,"95 Bedford Road, London, N2 9DB",Non-Newbuild,place,Terraced,0.42099999999999993,51.4615392368421,Freehold,-0.129039184210526,1550000.0,2018-10-26,house
2,"18 Oakfield Road, London, N4 4NL",Non-Newbuild,place,Terraced,0.42099999999999993,51.5955986142857,Freehold,-0.033173,1575000.0,2018-10-26,house
3,"22 Ridge Road, London, N21 3EA",Non-Newbuild,place,Terraced,0.411,41.6152791976472,Freehold,-72.089979328822,535000.0,2018-10-26,house
4,"232 East End Road, London, N2 8AX",Non-Newbuild,highway,Semi Detached,0.61,51.5936829,Freehold,-0.1832073,1100000.0,2018-10-26,primary
5,"Flat 1 Highview Crouch Hill, London, N8 9EH",Non-Newbuild,,Flat,,,Leasehold,,420000.0,2018-10-26,
6,"68 St Stephens Close, London, E17 9NU",Non-Newbuild,highway,Flat,0.6199999999999999,51.580105,Leasehold,-0.0123,395000.0,2018-10-26,residential
7,"Flat 3 Parkland Court, 2 Maryland Park, London, E15 1HB",Non-Newbuild,,Flat,,,Leasehold,,281500.0,2018-10-26,
8,"14b Warren Road, Chingford, London, E4 6QS",Non-Newbuild,highway,Flat,0.6299999999999999,51.6278453,Leasehold,-0.0039897,340000.0,2018-10-26,residential
9,"55 Ritherdon Road, London, SW17 8QE",Non-Newbuild,highway,Terraced,0.5199999999999999,51.4377674,Freehold,-0.1535054,1830000.0,2018-10-26,residential
10,"44a Endymion Road, London, N4 1EQ",Non-Newbuild,highway,Flat,0.61,51.5753007,Leasehold,-0.0998784,400000.0,2018-10-26,secondary
11,"Flat 9 Leeside Court, 169 Rotherhithe Street, London, SE16 5SZ",Non-Newbuild,,Flat,,,Leasehold,,505000.0,2018-10-26,
12,"First Floor Flat 835 Fulham Road, London, SW6 5HQ",Non-Newbuild,,Flat,,,Leasehold,,485000.0,2018-10-26,
13,"Flat 402 Nebraska Building Deals Gateway, London, SE13 7RT",Non-Newbuild,,Flat,,,Leasehold,,347500.0,2018-10-26,
14,"Flat 9 Vincent Court Hanley Road, London, N4 3DT",Non-Newbuild,,Flat,,,Leasehold,,420000.0,2018-10-26,
15,"11 Kingfisher House Juniper Drive, London, SW18 1TX",Non-Newbuild,,Flat,,,Leasehold,,355000.0,2018-10-26,
16,"186 Clive Road, London, SE21 8BS",Non-Newbuild,highway,Semi Detached,0.51,51.430727,Freehold,-0.090553,1200000.0,2018-10-26,residential
17,"9 Ripplevale Grove, London, N1 1HS",Non-Newbuild,building,Terraced,0.5209999999999999,51.53975265,Freehold,-0.110125374798164,1811750.0,2018-10-26,yes
18,"3 Bruton Way, London, W13 0BY",Non-Newbuild,highway,Semi Detached,0.71,51.5228042,Freehold,-0.3234759,344896.0,2018-10-26,residential
19,"50 Keston Road, London, SE15 4JB",Non-Newbuild,building,Terraced,0.621,51.4633412,Freehold,-0.07122545999999,1000000.0,2018-10-26,yes
20,"167 Grove Road, Walthamstow, London, E17 9BZ",Non-Newbuild,highway,Terraced,0.6199999999999999,51.5787701,Freehold,-0.0148514,640000.0,2018-10-26,residential
21,"24 Lewes Road, London, N12 9NL",Non-Newbuild,highway,Terraced,0.51,51.6123245,Freehold,-0.1637704,620000.0,2018-10-26,residential
22,"21a Broadway Buildings Boston Road, London, W7 3TT",Non-Newbuild,,,,,Freehold,,15000.0,2018-10-26,
23,"Flat 7 60 West End Lane, London, NW6 2NE",Non-Newbuild,,Flat,,,Leasehold,,700000.0,2018-10-26,
24,"170 Colney Hatch Lane, London, N10 1ET",Non-Newbuild,highway,,0.61,51.6058999,Freehold,-0.1500881,10000.0,2018-10-26,secondary
25,"Flat 5 15 Lindfield Gardens, London, NW3 6PX",Non-Newbuild,highway,Flat,0.61,51.5518861,Leasehold,-0.1826977,1187500.0,2018-10-26,residential
26,"12 The Parade, London, SE4 1SX",Non-Newbuild,highway,,0.275,51.3545836,Leasehold,-1.1414742,465000.0,2018-10-26,service
27,"95 Ellesmere Avenue, London, NW7 3HB",Non-Newbuild,highway,Semi Detached,0.51,51.624052,Freehold,-0.2582474,660000.0,2018-10-26,residential
28,"79 Minard Road, Catford, London, SE6 1NP",Non-Newbuild,highway,Terraced,0.61,51.4449404,Freehold,0.0001533,520000.0,2018-10-25,residential
29,"16 Bedford Road, London, N2 9DA",Non-Newbuild,place,Semi Detached,0.42099999999999993,51.5920044,Freehold,0.0241282,1022200.0,2018-10-25,house
30,"167a Porchester Terrace North, London, W2 6BJ",Non-Newbuild,highway,Flat,0.71,51.5172051,Leasehold,-0.1862926,407500.0,2018-10-25,residential
31,"Flat 53 Imperial Hall, 104 - 122 City Road, London, EC1V 2NR",Non-Newbuild,,Flat,,,Leasehold,,865000.0,2018-10-25,
32,"4 Lanhill Road, London, W9 2BP",Non-Newbuild,building,,0.5209999999999999,51.52702535,Freehold,-0.196726081610702,18500.0,2018-10-25,yes
33,"112 Chestnut Rise, London, SE18 1RL",Non-Newbuild,highway,Semi Detached,0.61,51.4837893,Freehold,0.08733,515000.0,2018-10-25,residential
34,"124 Crowther Road, London, SE25 5QS",Non-Newbuild,highway,Semi Detached,0.51,51.3960956,Freehold,-0.0721936,433150.0,2018-10-25,residential
35,"8 Langford Mews, London, SW11 1AE",Non-Newbuild,highway,Flat,0.485,51.4615094,Leasehold,-0.1739363,435000.0,2018-10-25,service
36,"5 Gaskell Street, London, SW4 6PA",Non-Newbuild,highway,Flat,0.51,51.4703003,Leasehold,-0.1288224,317000.0,2018-10-25,residential
37,"33 Haslemere Avenue, London, SW18 4RN",Non-Newbuild,highway,Semi Detached,0.61,51.4406187,Freehold,-0.1926423,735000.0,2018-10-25,residential
38,"100 Dulverton Road, London, SE9 3RL",Non-Newbuild,highway,Semi Detached,0.51,51.4359465,Freehold,0.0788074,544000.0,2018-10-25,residential
39,"175 Princes Avenue, London, NW9 9QS",Non-Newbuild,highway,Terraced,0.51,51.5891685,Freehold,-0.2795947,456785.0,2018-10-24,residential
40,"Flat 62 Horseley Court, 4 Candle Street, London, E1 4RX",Non-Newbuild,,Flat,,,Leasehold,,124500.0,2018-10-24,
41,"Flat 45 Elizabeth Court, 47 Milmans Street, London, SW10 0DA",Non-Newbuild,,Flat,,,Leasehold,,650000.0,2018-10-24,
42,"7 Skyline House Dickens Yard Longfield Avenue, London, W5 2BJ",Non-Newbuild,,Flat,,,Leasehold,,550000.0,2018-10-24,
43,"2 Wyndcliff Road, London, SE7 7JX",Non-Newbuild,highway,Terraced,0.51,51.4813985,Freehold,0.0263671,680000.0,2018-10-24,residential
44,"Flat 8 Broadlands Lodge Broadlands Road, London, N6 4AW",Non-Newbuild,,Flat,,,Leasehold,,950000.0,2018-10-24,
45,"252 Portobello Road, London, W11 1LL",Non-Newbuild,highway,,0.846786021315393,51.5171114,Leasehold,-0.2059651,15000.0,2018-10-24,residential
46,"6 Atherden Road, London, E5 0QP",Non-Newbuild,highway,Terraced,0.51,51.5552009,Freehold,-0.0529347,850000.0,2018-10-24,residential
47,"2a And 2b Combedale Road, London, SE10 0LG",Non-Newbuild,highway,Terraced,0.71,51.4862724,Freehold,0.0171657,1420000.0,2018-10-24,tertiary
48,"Flat 33 Park Court Battersea Park Road, London, SW11 4LD",Non-Newbuild,,Flat,,,Leasehold,,290000.0,2018-10-24,
49,"23 Derby Avenue, London, N12 8DD",Non-Newbuild,highway,Terraced,0.51,51.6136753,Freehold,-0.1779029,625000.0,2018-10-24,uncategoryified
50,"165 Elms Crescent, London, SW4 8QQ",Non-Newbuild,highway,Terraced,0.51,51.4525524,Freehold,-0.1385818,1505000.0,2018-10-24,residential
51,"54 Rowditch Lane, London, SW11 5BX",Non-Newbuild,highway,Semi Detached,0.5199999999999999,51.4713093,Freehold,-0.15688,550000.0,2018-10-24,residential
52,"69 Poplar Road, London, SW19 3JS",Non-Newbuild,place,Semi Detached,0.411,41.377029535549,Freehold,-72.061657073172,950000.0,2018-10-24,house
53,"46 Alwyne Road, Wimbledon, London, SW19 7AE",Non-Newbuild,highway,Semi Detached,0.61,51.4240166,Freehold,-0.2059878,1897000.0,2018-10-24,residential
54,"Flat 3 Wynsmere Court, 161 Green Dragon Lane, London, N21 1EN",Non-Newbuild,,Flat,,,Leasehold,,395000.0,2018-10-23,
55,"4 Briardale Gardens, London, NW3 7PP",Non-Newbuild,highway,Semi Detached,0.51,51.5601748,Freehold,-0.1954305,2397132.0,2018-10-23,residential
56,"88 Dresden Road, London, N19 3BQ",Non-Newbuild,highway,Terraced,0.51,51.5714367,Freehold,-0.1317442,1020000.0,2018-10-23,residential
57,"363a Acton Lane, London, W3 8NR",Non-Newbuild,highway,Flat,0.62,51.5051444,Leasehold,-0.2658743,562500.0,2018-10-23,uncategoryified
58,"125 Packington Street, London, N1 7EA",Non-Newbuild,highway,,0.5199999999999999,51.536868,Freehold,-0.0985681,1000000.0,2018-10-23,tertiary
59,"116 Landor Road, London, SW9 9NT",Non-Newbuild,highway,Terraced,0.61,51.4670374,Freehold,-0.1223807,431250.0,2018-10-23,uncategoryified
60,"49 Torrent Lodge, 11 Merryweather Place, London, SE10 8EQ",Non-Newbuild,,Flat,,,Leasehold,,379950.0,2018-10-23,
61,"6 Kemerton Road, London, SE5 9AP",Non-Newbuild,highway,,0.61,51.4646479,Freehold,-0.0980218,16500.0,2018-10-23,residential
62,"72 Bronson Road, London, SW20 8DY",Non-Newbuild,highway,Terraced,0.61,51.4103734,Freehold,-0.2188204,655000.0,2018-10-23,residential
63,"2 Digby Crescent, London, N4 2HR",Non-Newbuild,highway,,0.71,51.563813,Freehold,-0.0940138,2200000.0,2018-10-23,residential
64,"19 Arnulf Street, London, SE6 3EF",Non-Newbuild,highway,Terraced,0.51,51.4277623,Freehold,-0.0207979,310000.0,2018-10-23,residential
65,"3a Riversdale Road, London, N5 2SS",Non-Newbuild,highway,,0.51,51.5597468,Freehold,-0.09625,23000.0,2018-10-23,residential
66,"121 Ledbury Road, London, W11 2AQ",Non-Newbuild,highway,Terraced,0.5402722515829559,51.5159711,Freehold,-0.19962,2775000.0,2018-10-23,residential
67,"23 Hinksey Path, London, SE2 9TB",Non-Newbuild,highway,,0.485,51.4951101,Freehold,0.1227489,228000.0,2018-10-23,footway
68,"7 Summit Avenue, London, NW9 0TH",Non-Newbuild,place,Terraced,0.42099999999999993,42.990921,Freehold,-81.2699351,505000.0,2018-10-23,house
69,"Flat 6 5 Exmoor Street, London, W10 6BB",Non-Newbuild,,Flat,,,Leasehold,,490000.0,2018-10-23,
70,"Holwood House Nan Clarks Lane, London, NW7 4HH",Non-Newbuild,,Detached,,,Freehold,,3200000.0,2018-10-23,
71,"118 Landor Road, London, SW9 9NT",Non-Newbuild,highway,Flat,0.61,51.4670374,Leasehold,-0.1223807,525000.0,2018-10-23,uncategoryified
72,"91 The Grove, London, N13 5JS",Non-Newbuild,landuse,Terraced,0.51,51.54471765,Freehold,-0.112802244638372,775000.0,2018-10-23,residential
73,"Ground Floor 252 Brixton Hill, London, SW2 1HF",Non-Newbuild,,,,,Leasehold,,40000.0,2018-10-23,
74,"23 Rowden Road, London, E4 8SD",Non-Newbuild,place,Semi Detached,0.5309999999999999,51.6058482,Freehold,-0.0150735,505000.0,2018-10-23,house
75,"118 Parish Lane, London, SE20 7JH",Non-Newbuild,highway,Terraced,0.61,51.4166359,Freehold,-0.0499437,525000.0,2018-10-23,primary
76,"28 Lyndhurst Road, London, E4 9JU",Non-Newbuild,highway,Terraced,0.5199999999999999,51.6037572,Freehold,-0.0038373,486950.0,2018-10-23,residential
77,"Flat 7 Marlowe House Milton Garden Estate, London, N16 8TW",Non-Newbuild,,Flat,,,Leasehold,,455000.0,2018-10-23,
78,"Flat 19 71 - 73 Upper Berkeley Street, London, W1H 7DB",Non-Newbuild,,Flat,,,Leasehold,,674500.0,2018-10-22,
79,"11 Wells Park Road, London, SE26 6JQ",Non-Newbuild,highway,Detached,0.61,51.4314921,Freehold,-0.069203,720000.0,2018-10-22,tertiary
80,"75 Beaconsfield Road, London, N15 4SH",Non-Newbuild,highway,Terraced,0.51,51.5873534,Freehold,-0.0757704,615000.0,2018-10-22,residential
81,"53 Blackheath Road, London, SE10 8PD",Non-Newbuild,highway,,0.61,51.473055,Freehold,-0.0167024,15000.0,2018-10-22,trunk
82,"29 Church Lane, London, NW9 8ST",Non-Newbuild,amenity,Semi Detached,0.42099999999999993,51.5680687,Freehold,0.0085821,85500.0,2018-10-22,fast_food
83,"133a Kingston Road, Wimbledon, London, SW19 1LT",Non-Newbuild,highway,Flat,0.61,51.4153971,Leasehold,-0.1954477,375000.0,2018-10-22,primary
84,"15 Queen Annes Grove, London, W4 1HW",Non-Newbuild,highway,Terraced,0.5199999999999999,51.4973784,Freehold,-0.2570863,2565000.0,2018-10-22,residential
85,"245 Eversholt Street, London, NW1 1BA",Non-Newbuild,amenity,Flat,0.621,51.53359115,Freehold,-0.137853253051392,1100000.0,2018-10-22,restaurant
86,"49 Morland Road, London, E17 7JA",Non-Newbuild,,Terraced,,,Freehold,,640000.0,2018-10-22,
87,"84a Brixton Hill, London, SW2 1QN",Non-Newbuild,place,,0.411,51.4550613481986,Freehold,-0.119657529010671,950000.0,2018-10-22,house
88,"7 Oak Hall Road, London, E11 2JT",Non-Newbuild,,Terraced,,,Freehold,,1001000.0,2018-10-22,
89,"392 Strone Road, London, E12 6TN",Non-Newbuild,highway,Terraced,0.51,51.5442526,Freehold,0.0416405,450000.0,2018-10-22,residential
90,"Flat 404 Denison House, 20 Lanterns Way, London, E14 9JJ",Non-Newbuild,,Flat,,,Leasehold,,385000.0,2018-10-22,
91,"Flat 11 Gunnersbury Court Bollo Lane, London, W3 8JL",Non-Newbuild,,Flat,,,Leasehold,,375000.0,2018-10-22,
92,"3 Kirkby Close, London, N11 3FE",Non-Newbuild,highway,Terraced,0.61,51.6109393,Freehold,-0.1494829,445000.0,2018-10-22,residential
93,"37 Campden Street, London, W8 7ET",Non-Newbuild,highway,Terraced,0.51,51.5064305,Freehold,-0.1970303,2030000.0,2018-10-22,residential
94,"Flat 17 Hazlitt Court, 80 Northwold Road, London, E5 8BN",Non-Newbuild,,Flat,,,Leasehold,,192000.0,2018-10-22,
95,"Flat 1 Stephens Lodge Woodside Lane, London, N12 8QH",Non-Newbuild,,Flat,,,Leasehold,,400000.0,2018-10-22,
96,"5 Rodney Road, London, E11 2DE",Non-Newbuild,,Terraced,,,Freehold,,650000.0,2018-10-22,
97,"Flat 7 Stanhope Court, 53 - 55 Stanhope Road, London, N12 9DZ",Non-Newbuild,,Flat,,,Leasehold,,465000.0,2018-10-22,
98,"Flat 35 Stourcliffe Close Stourcliffe Street, London, W1H 5AR",Non-Newbuild,,Flat,,,Leasehold,,200000.0,2018-10-22,
99,"Flat 8 56 Westbourne Terrace, London, W2 3UJ",Non-Newbuild,,Flat,,,Leasehold,,452008.0,2018-10-22,
100,"Flat 65 Pembroke House Hallfield Estate, London, W2 6HQ",Non-Newbuild,,Flat,,,Leasehold,,610000.0,2018-10-22,
101,"11 Weald Close, London, SE16 3ET",Non-Newbuild,highway,Flat,0.61,51.4878002,Leasehold,-0.0623072,150000.0,2018-10-22,residential
102,"88 Mellison Road, London, SW17 9AY",Non-Newbuild,highway,Flat,0.5199999999999999,51.4246652,Leasehold,-0.1679724,500000.0,2018-10-22,residential
103,"242 Malyons Road, London, SE13 7XF",Non-Newbuild,highway,Flat,0.51,51.4563697,Leasehold,-0.020707,350000.0,2018-10-22,residential
104,"Flat 7 Sherard Mansions, 46 Well Hall Road, London, SE9 6SQ",Non-Newbuild,,Flat,,,Leasehold,,355000.0,2018-10-22,
105,"Flat 7 34a Arterberry Road, London, SW20 8AQ",Non-Newbuild,,Flat,,,Leasehold,,418000.0,2018-10-22,
106,"55 Epstein Road, London, SE28 8DQ",Non-Newbuild,highway,Flat,0.51,51.5008967,Freehold,0.1099501,252500.0,2018-10-22,residential
107,"17 Elm Park, London, SW2 2TX",Non-Newbuild,place,Terraced,0.56,51.5509571,Freehold,0.1988709,835000.0,2018-10-22,suburb
108,"31 Alanthus Close, London, SE12 8RE",Non-Newbuild,highway,Flat,0.61,51.4525455,Leasehold,0.0129334,204000.0,2018-10-22,residential
109,"141 Foxborough Gardens, London, SE4 1HT",Non-Newbuild,highway,Flat,0.41000000000000003,51.4527227,Leasehold,-0.0274544590560818,252000.0,2018-10-22,residential
110,"104 Dumbreck Road, London, SE9 1XD",Non-Newbuild,highway,Terraced,0.51,51.4615101,Freehold,0.0672193,405000.0,2018-10-22,residential
111,"9 Gibsons Hill, London, SW16 3JL",Non-Newbuild,highway,Terraced,0.51,51.4158269,Freehold,-0.1146066,552000.0,2018-10-22,residential
112,"28 Ronalds Road, Islington, London, N5 1XG",Non-Newbuild,building,Terraced,0.621,51.55035645,Freehold,-0.106623521233987,1600000.0,2018-10-22,yes
113,"37 Bennerley Road, London, SW11 6DR",Non-Newbuild,building,Terraced,0.5209999999999999,51.4577497,Freehold,-0.168006700000001,1315000.0,2018-10-22,yes
114,"Flat A 17 Ashburnham Road, London, SW10 0PG",Non-Newbuild,,Flat,,,Leasehold,,510000.0,2018-10-22,
115,"15 Birchington Road, Kilburn, London, NW6 4LL",Non-Newbuild,building,Flat,0.621,51.53949845,Leasehold,-0.193035017740649,300000.0,2018-10-22,yes
116,"First Floor Flat 33 Bonfield Road, London, SE13 6BX",Non-Newbuild,,Flat,,,Leasehold,,346000.0,2018-10-22,
117,"Flat 21 Rossetti House, 59 Ordnance Hill, London, NW8 6QF",Non-Newbuild,,Flat,,,Leasehold,,3210000.0,2018-10-22,
118,"Apartment 3108 155 Wandsworth Road, London, SW8 2FZ",Non-Newbuild,,Flat,,,Leasehold,,1000000.0,2018-10-22,
119,"Flat 92 Hoxton Street, London, N1 6LP",Non-Newbuild,,Flat,,,Leasehold,,825000.0,2018-10-19,
120,"47a Pulteney Road, London, E18 1PR",Non-Newbuild,highway,Terraced,0.61,51.5898374,Leasehold,0.0276665,360000.0,2018-10-19,residential
121,"Parking Space 76 York House York House Place, London, W8 4EY",Non-Newbuild,,,,,Leasehold,,175000.0,2018-10-19,
122,"30a Aden Grove, London, N16 9NJ",Non-Newbuild,highway,Terraced,0.51,51.554111,Freehold,-0.0868148,875000.0,2018-10-19,residential
123,"Flat 134 Dover House Bolton Road, London, N18 1HR",Non-Newbuild,,Flat,,,Leasehold,,185000.0,2018-10-19,
124,"49 Margravine Gardens, London, W6 8RN",Non-Newbuild,highway,Terraced,0.51,51.4901768,Freehold,-0.2151271,990000.0,2018-10-19,residential
125,"18 Higham Road, London, N17 6NF",Non-Newbuild,highway,,0.61,51.5927628,Freehold,-0.0804549,9000.0,2018-10-19,residential
126,"50 Penwortham Road, London, SW16 6RE",Non-Newbuild,highway,Terraced,0.51,51.4220425,Freehold,-0.1458572,970000.0,2018-10-19,residential
127,"26 Park Hill, London, W5 2JN",Non-Newbuild,highway,,0.51,51.5215453,Freehold,-0.3014788,2200000.0,2018-10-19,residential
128,"18 Windermere Road, London, W5 4TD",Non-Newbuild,building,Flat,0.42099999999999993,51.46673295,Leasehold,0.159609255861428,490000.0,2018-10-19,yes
129,"71 Celestial Gardens, Lewisham, London, SE13 5RU",Non-Newbuild,highway,Flat,0.6849999999999999,51.4591183,Leasehold,-0.0008346,310000.0,2018-10-19,service
130,"29 South Park Crescent, London, SE6 1JJ",Non-Newbuild,highway,Terraced,0.61,51.4411249,Freehold,0.0073961,410000.0,2018-10-19,residential
131,"19 Hector Street, Plumstead, London, SE18 1QT",Non-Newbuild,highway,Terraced,0.6199999999999999,51.4873935,Freehold,0.0879324,412000.0,2018-10-19,residential
132,"13 Creighton Road, London, N17 8JU",Non-Newbuild,highway,Terraced,0.61,51.6052064,Freehold,-0.0743217,570000.0,2018-10-19,tertiary
133,"54 Parkhill Road, London, NW3 2YP",Non-Newbuild,highway,,0.41000000000000003,51.4435396,Freehold,0.1390192,160500.0,2018-10-19,secondary
134,"Apartment 3707 Charrington Tower, 11 Biscayne Avenue, London, E14 9BQ",Non-Newbuild,,Flat,,,Leasehold,,670000.0,2018-10-19,
135,"46 Chagford Street, London, NW1 6EB",Non-Newbuild,building,,0.5209999999999999,51.5234315,Freehold,-0.159838319166255,3750000.0,2018-10-19,yes
136,"98 Ealing Park Gardens, London, W5 4ET",Non-Newbuild,highway,Flat,0.61,51.4958669,Leasehold,-0.3104261,390000.0,2018-10-19,residential
137,"5 Lambton Place, London, W11 2SH",Non-Newbuild,place,Terraced,0.621,51.5140051,Freehold,-0.2004915,2575000.0,2018-10-19,house
138,"39 Murchison Road, London, E10 6NA",Non-Newbuild,highway,Terraced,0.5199999999999999,51.5635738,Freehold,-0.0069433,805000.0,2018-10-19,residential
139,"Flat 7 Cabot Court Worgan Street, London, SE16 7WE",Non-Newbuild,,Flat,,,Leasehold,,477500.0,2018-10-19,
140,"11 Porch Way, London, N20 0DS",Non-Newbuild,highway,Flat,0.61,51.6244348,Leasehold,-0.1574097,280000.0,2018-10-19,residential
141,"Flat 17 Tait Court Lansdowne Green, London, SW8 2EU",Non-Newbuild,,Flat,,,Leasehold,,450000.0,2018-10-19,
142,"3 Oakdale Nether Street, London, N3 1JE",Non-Newbuild,,Flat,,,Leasehold,,100000.0,2018-10-19,
143,"Flat 25 Lafitte House New Orleans Walk, London, N19 3UE",Non-Newbuild,,Flat,,,Leasehold,,370000.0,2018-10-19,
144,"Flat 8 Elstree Apartments, 72 Grove Park, London, NW9 0FF",Newbuild,,Flat,,,Leasehold,,240000.0,2018-10-19,
145,"4 Longthornton Road, London, SW16 5QD",Non-Newbuild,highway,Terraced,0.5199999999999999,51.4083358,Freehold,-0.1389892,361500.0,2018-10-19,residential
146,"Unit F 2 Shelford Place, London, N16 9HS",Non-Newbuild,,,,,Leasehold,,315000.0,2018-10-19,
147,"58 Weirdale Avenue, London, N20 0AG",Non-Newbuild,building,Terraced,0.621,51.6282475,Freehold,-0.155409649256303,395000.0,2018-10-19,yes
148,"Flat 81 Harford House, 35 Tavistock Crescent, London, W11 1AZ",Non-Newbuild,,,,,Freehold,,550000.0,2018-10-19,
149,"138 Elborough Street, Southfields, London, SW18 5DL",Non-Newbuild,,Terraced,,,Freehold,,960000.0,2018-10-19,
150,"67 The Ridings, London, W5 3DP",Non-Newbuild,highway,Detached,0.5199999999999999,51.5245369,Freehold,-0.2883487,1050000.0,2018-10-19,residential
151,"7 Tufnell House, 14 Pleasant Place, London, N1 2BY",Non-Newbuild,,Flat,,,Leasehold,,420000.0,2018-10-19,
152,"38 Friern Road, London, SE22 0AX",Non-Newbuild,building,Terraced,0.5209999999999999,51.4560604,Freehold,-0.066321147300605,1115000.0,2018-10-19,yes
153,"First And Second Floor Flat A 65 Senrab Street, London, E1 0QF",Non-Newbuild,,Flat,,,Leasehold,,520000.0,2018-10-19,
154,"24 Cissbury Road, London, N15 5QA",Non-Newbuild,highway,Terraced,0.51,51.5811991,Freehold,-0.082992,657700.0,2018-10-19,residential
155,"Flat 28 Hereford House North Row, London, W1K 7DE",Non-Newbuild,,Flat,,,Leasehold,,7500000.0,2018-10-19,
156,"165 Belgrave Road, Walthamstow, London, E17 8QF",Non-Newbuild,highway,Terraced,0.71,51.5759262,Freehold,-0.0177814,630000.0,2018-10-19,residential
157,"Flat 1 14 Marylebone Street, London, W1G 8JN",Non-Newbuild,highway,Flat,0.5199999999999999,51.5194299,Leasehold,-0.1509647,502500.0,2018-10-19,residential
158,"Apartment 502 5 Pearson Square, London, W1T 3BQ",Non-Newbuild,,Flat,,,Leasehold,,2050000.0,2018-10-19,
159,"54 Elmcroft Avenue, London, E11 2BL",Non-Newbuild,,Terraced,,,Freehold,,720000.0,2018-10-19,
160,"18c North Villas, London, NW1 9BJ",Non-Newbuild,highway,Flat,0.51,51.5470812,Leasehold,-0.1294203,475000.0,2018-10-19,residential
161,"50 Mayfield Crescent, London, N9 7NH",Non-Newbuild,highway,Terraced,0.51,51.6417643,Freehold,-0.0548036,490000.0,2018-10-19,residential
162,"Flat 19 Sackville House, 2 Myddelton Road, London, N8 7PW",Non-Newbuild,,Flat,,,Leasehold,,313000.0,2018-10-19,
163,"112 Pemberton Road, London, N4 1BA",Non-Newbuild,highway,Terraced,0.51,51.5805224,Freehold,-0.10281,835000.0,2018-10-19,residential
164,"232 St Marys Road, Edmonton, London, N9 8NN",Non-Newbuild,highway,Terraced,0.51,51.6319573,Freehold,-0.0489948,352000.0,2018-10-19,residential
165,"57 Marten Road, London, E17 4NL",Non-Newbuild,place,Terraced,0.5309999999999999,51.5958498782609,Freehold,-0.0166323739130435,773500.0,2018-10-19,house
166,"Flat 23 Harmood House Harmood Street, London, NW1 8DY",Non-Newbuild,,Flat,,,Leasehold,,500000.0,2018-10-19,
167,"Flat 25 Ferrydale Lodge, 48 Church Road, London, NW4 4EW",Non-Newbuild,,Flat,,,Leasehold,,160000.0,2018-10-19,
168,"115 Albion Road, London, N16 9PL",Non-Newbuild,highway,Flat,0.51,51.5564263,Leasehold,-0.083998,500000.0,2018-10-19,secondary
169,"Ground Floor Flat 49a Preston Road, London, E11 1NL",Non-Newbuild,,Flat,,,Leasehold,,478000.0,2018-10-19,
170,"Flat 4 78 Hemingford Road, London, N1 1DB",Non-Newbuild,,Flat,,,Leasehold,,400000.0,2018-10-19,
171,"Flat 26 Henshall Point Bromley High Street, London, E3 3EJ",Non-Newbuild,,Flat,,,Leasehold,,305000.0,2018-10-19,
172,"Flat 5 Tequila Wharf, 681 Commercial Road, London, E14 7LG",Non-Newbuild,,Flat,,,Leasehold,,470000.0,2018-10-19,
173,"11 Chandos Avenue, London, N20 9ED",Non-Newbuild,building,Semi Detached,0.5209999999999999,51.6338508,Freehold,-0.174535303273855,1225000.0,2018-10-19,yes
174,"45a Claude Road, London, E10 6NG",Non-Newbuild,,Flat,,,Leasehold,,394000.0,2018-10-19,
175,"124 Maltings Close, London, E3 3TD",Non-Newbuild,highway,Flat,0.38500000000000006,51.52405605,Leasehold,-0.00933507600000004,300000.0,2018-10-19,service
176,"36 Burghley Road, London, N8 0QE",Non-Newbuild,highway,Terraced,0.61,51.590449,Freehold,-0.107133,785000.0,2018-10-19,residential
177,"Flat 702 Ceram Court, 10 Seven Sea Gardens, London, E3 3GW",Non-Newbuild,,Flat,,,Leasehold,,460000.0,2018-10-19,
178,"Flat 8 Bailey House, 9 Talwin Street, London, E3 3NF",Non-Newbuild,,Flat,,,Leasehold,,287000.0,2018-10-19,
179,"14 Old Kenton Lane, London, NW9 9NA",Non-Newbuild,highway,Semi Detached,0.61,51.5843709,Freehold,-0.2701739,710000.0,2018-10-19,residential
180,"Flat 102 Sargasso Court, 30 Voysey Square, London, E3 3LG",Non-Newbuild,,Flat,,,Leasehold,,440000.0,2018-10-19,
181,"Flat 19 110 Romford Road, Manor Park, London, E15 4EH",Non-Newbuild,,Flat,,,Leasehold,,310000.0,2018-10-19,
182,"First Floor Flat 176 Westbourne Park Road, London, W11 1BT",Non-Newbuild,,Flat,,,Leasehold,,750000.0,2018-10-19,
183,"Flat 9 M Block Peabody Estate, London, W6 9QW",Non-Newbuild,,Flat,,,Leasehold,,332000.0,2018-10-19,
184,"Flat 403 Landmark West Tower, 22 Marsh Wall, London, E14 9AF",Non-Newbuild,,Flat,,,Leasehold,,425000.0,2018-10-19,
185,"4a St James Street, London, W6 9RW",Non-Newbuild,highway,Flat,0.71,51.488362,Leasehold,-0.2269384,395000.0,2018-10-19,residential
186,"Flat 9 7 Lena Gardens, London, W6 7PY",Non-Newbuild,,Flat,,,Leasehold,,283000.0,2018-10-19,
187,"30 Campbell Road, London, E17 6RR",Non-Newbuild,place,Terraced,0.5309999999999999,51.5867205,Leasehold,-0.02517005,425000.0,2018-10-19,house
188,"103 Alexandra Park Road, London, N10 2DP",Non-Newbuild,highway,Semi Detached,0.61,51.5957895,Freehold,-0.1444583,1170000.0,2018-10-19,secondary
189,"Flat A 20 Lakeside Road, London, W14 0DU",Non-Newbuild,,Flat,,,Leasehold,,530000.0,2018-10-19,
190,"11 Moore Walk, London, E7 0HY",Non-Newbuild,highway,Terraced,0.51,51.5511386,Freehold,0.0242466,385000.0,2018-10-19,residential
191,"45 Mafeking Avenue, London, E6 3BQ",Non-Newbuild,highway,Terraced,0.51,51.531542,Freehold,0.0456663,367500.0,2018-10-19,residential
192,"1 Charles Ii Place, London, SW3 4NG",Non-Newbuild,highway,Terraced,0.71,51.4887068,Freehold,-0.1641509,2250000.0,2018-10-19,residential
193,"3 Sarum Terrace, London, E3 4HJ",Non-Newbuild,building,Terraced,0.611,51.5214952,Freehold,-0.030471891849871,725000.0,2018-10-19,yes
194,"44 Coopers Lane, London, E10 5DG",Non-Newbuild,highway,Terraced,0.5199999999999999,51.5693073,Freehold,-0.0100941,530000.0,2018-10-19,residential
195,"Basement Flat 56 Victoria Road, Kilburn, London, NW6 6QA",Non-Newbuild,,Flat,,,Leasehold,,652500.0,2018-10-19,
196,"Flat 35 Cadnam Lodge, 34 Schooner Close, London, E14 3GQ",Non-Newbuild,,Flat,,,Leasehold,,362000.0,2018-10-19,
197,"32 Wendell Road, London, W12 9RS",Non-Newbuild,highway,Terraced,0.51,51.5018964,Freehold,-0.2471963,1240000.0,2018-10-19,residential
198,"63 Priory Gardens, London, W5 1DY",Non-Newbuild,highway,Terraced,0.61,51.5320692,Freehold,-0.2947197,582500.0,2018-10-19,residential
199,"27a Oaklands Grove, London, W12 0JD",Non-Newbuild,highway,Flat,0.51,51.5080567,Leasehold,-0.2367697,460000.0,2018-10-19,residential
200,"121 Clifton Road, London, SE25 6QA",Non-Newbuild,highway,Terraced,0.61,51.3971519,Freehold,-0.0873655,313000.0,2018-10-19,residential
201,"Flat 24 Farley Court Allsop Place, London, NW1 5LG",Non-Newbuild,,Flat,,,Leasehold,,680000.0,2018-10-19,
202,"42 Shelley Way, London, SW19 1TS",Non-Newbuild,highway,Flat,0.51,51.4234903,Leasehold,-0.1790943,294000.0,2018-10-19,residential
203,"Flat 4 16 Montrell Road, London, SW2 4QB",Non-Newbuild,highway,Flat,0.61,51.4447423,Leasehold,-0.1265766,395000.0,2018-10-19,residential
204,"53 Granby Road, London, SE9 1EH",Non-Newbuild,place,Terraced,0.411,39.7483089950118,Freehold,-75.7858325281107,365000.0,2018-10-19,house
205,"Flat A 10 Cricketfield Road, London, E5 8NS",Non-Newbuild,,Flat,,,Freehold,,617000.0,2018-10-19,
206,"1a Cambray Road, London, SW12 0DX",Non-Newbuild,highway,Terraced,0.61,51.4453569,Leasehold,-0.1365927,780000.0,2018-10-19,residential
207,"137 Chudleigh Road, London, SE4 1HP",Non-Newbuild,highway,Terraced,0.61,51.4540016,Freehold,-0.0258766,695955.0,2018-10-19,residential
208,"66 Black Lion Lane, London, W6 9BE",Non-Newbuild,highway,Terraced,0.71,51.4917891,Freehold,-0.2424146,925000.0,2018-10-19,residential
209,"9 Carnbrook Road, London, SE3 8AA",Non-Newbuild,highway,Terraced,0.51,51.4639821,Freehold,0.0385408,360000.0,2018-10-19,residential
210,"69a Kings Avenue, London, SW4 8DX",Non-Newbuild,highway,Semi Detached,0.51,51.4483606,Freehold,-0.1316642,855000.0,2018-10-19,secondary
211,"82 Badminton Road, London, SW12 8BL",Non-Newbuild,highway,Terraced,0.51,51.4502906,Freehold,-0.1523301,1280000.0,2018-10-19,residential
212,"Flat 1 St Pauls Mews, 142 Clapham Park Road, London, SW4 7DE",Non-Newbuild,,Flat,,,Leasehold,,610000.0,2018-10-19,
213,"36 Milton Road, London, SE24 0NP",Non-Newbuild,highway,Terraced,0.61,51.4540364,Freehold,-0.107268,1110000.0,2018-10-19,residential
214,"140 Salcott Road, London, SW11 6DG",Non-Newbuild,highway,Terraced,0.5199999999999999,51.4575828,Freehold,-0.1657808,1200000.0,2018-10-19,residential
215,"65 Fingal Street, London, SE10 0JL",Non-Newbuild,highway,Terraced,0.61,51.4880511,Freehold,0.0126748,610000.0,2018-10-19,residential
216,"14 Packmores Road, London, SE9 2NA",Non-Newbuild,highway,Semi Detached,0.61,51.4516301,Freehold,0.0852655,640000.0,2018-10-19,residential
217,"47 Bishopsthorpe Road, London, SE26 4PA",Non-Newbuild,highway,Semi Detached,0.51,51.4285673,Freehold,-0.0500285,1255000.0,2018-10-19,residential
218,"78 Topsham Road, London, SW17 8SP",Non-Newbuild,highway,Terraced,0.5199999999999999,51.4327366,Freehold,-0.1588513,690000.0,2018-10-19,residential
219,"22 Amyruth Road, London, SE4 1HQ",Non-Newbuild,highway,Semi Detached,0.51,51.4558354,Freehold,-0.0283517,680000.0,2018-10-19,residential
220,"53 Glencairn Road, London, SW16 5DG",Non-Newbuild,highway,Terraced,0.61,51.4161722,Freehold,-0.1265783,749500.0,2018-10-19,residential
221,"36b Surrey Square, London, SE17 2JX",Non-Newbuild,highway,Flat,0.5199999999999999,51.4888316,Leasehold,-0.082336,485000.0,2018-10-19,residential
222,"312 Church Road, London, SW19 2QF",Non-Newbuild,highway,Terraced,0.61,51.4101822,Freehold,-0.1781375,395000.0,2018-10-19,tertiary
223,"7 Lexton Gardens, London, SW12 0AY",Non-Newbuild,highway,Semi Detached,0.41000000000000003,51.4446152,Freehold,-0.131836,845000.0,2018-10-19,residential
224,"Flat 412 Spice Quay Heights, 32 Shad Thames, London, SE1 2YL",Non-Newbuild,,Flat,,,Leasehold,,860000.0,2018-10-19,
225,"26 Colepits Wood Road, London, SE9 2QF",Non-Newbuild,highway,Semi Detached,0.71,51.4550075,Freehold,0.0808706,655000.0,2018-10-19,residential
226,"9 Netherhall Gardens, Hampstead, London, NW3 5RN",Non-Newbuild,highway,Semi Detached,0.6199999999999999,51.5494469,Freehold,-0.1791722,5709600.0,2018-10-19,residential
227,"Flat 21 Skyline Court, 9 Grange Yard, London, SE1 3AN",Non-Newbuild,,Flat,,,Leasehold,,475000.0,2018-10-19,
228,"Flat 3 29 Shelgate Road, London, SW11 1BB",Non-Newbuild,highway,Flat,0.5199999999999999,51.4595556,Leasehold,-0.164692,490000.0,2018-10-19,residential
229,"24 Montpelier Square, London, SW7 1JR",Non-Newbuild,building,Terraced,0.5209999999999999,51.5002311,Freehold,-0.167288353077252,8265000.0,2018-10-19,yes
230,"52 St Fillans Road, London, SE6 1DG",Non-Newbuild,highway,Terraced,0.71,51.4434985,Freehold,-0.0094815,560000.0,2018-10-19,residential
231,"2 Goldsmid Street, London, SE18 1PT",Non-Newbuild,highway,Terraced,0.61,51.483097,Freehold,0.0900795,325000.0,2018-10-19,residential
232,"3 Wallcote Avenue, London, NW2 1AX",Non-Newbuild,highway,Terraced,0.51,51.571642,Freehold,-0.2154716,600000.0,2018-10-19,residential
233,"7 Coachmaker Mews, London, SW4 7SP",Non-Newbuild,,Flat,,,Leasehold,,640000.0,2018-10-19,
234,"3 Ladysmith Road, London, SE9 5BN",Non-Newbuild,highway,Terraced,0.61,51.4470878,Freehold,0.060492,590000.0,2018-10-19,residential
235,"Flat 2 9a Dallington Street, London, EC1V 0BQ",Non-Newbuild,,Flat,,,Leasehold,,1225000.0,2018-10-19,
236,"6 Cadbury Way, London, SE16 3XB",Non-Newbuild,highway,Flat,0.71,51.4942858,Leasehold,-0.0713661,370000.0,2018-10-19,residential
237,"Flat 4 102 Riggindale Road, London, SW16 1QJ",Non-Newbuild,,Flat,,,Leasehold,,435000.0,2018-10-19,
238,"35 Langley Park, London, NW7 2AA",Non-Newbuild,highway,Semi Detached,0.61,51.6126981,Freehold,-0.2507386,840000.0,2018-10-19,residential
239,"Flat 24 Swanley House Kinglake Estate, London, SE17 2LF",Non-Newbuild,,Flat,,,Leasehold,,310000.0,2018-10-19,
240,"Flat 28 Voltaire Buildings, 330 Garratt Lane, London, SW18 4FQ",Non-Newbuild,,Flat,,,Leasehold,,455000.0,2018-10-19,
241,"127 Ashburton Triangle Drayton Park, London, N5 1GD",Non-Newbuild,,Flat,,,Leasehold,,265000.0,2018-10-19,
242,"Flat 8 Sycamore Court Leigham Court Road, Streatham, London, SW16 3RG",Non-Newbuild,,Flat,,,Leasehold,,300000.0,2018-10-19,
243,"Flat 421 Baltic Quay, 1 Sweden Gate, London, SE16 7TJ",Non-Newbuild,,Flat,,,Leasehold,,410000.0,2018-10-19,
244,"48 The Avenue, London, W4 1HR",Non-Newbuild,building,Semi Detached,0.42099999999999993,51.5405621,Freehold,-0.211436005370986,1133500.0,2018-10-19,yes
245,"Flat 19 Grainger Court Redcar Street, London, SE5 0LX",Non-Newbuild,,Flat,,,Leasehold,,275000.0,2018-10-19,
246,"Flat 1 18 Merton Hall Road, London, SW19 3PP",Non-Newbuild,highway,Flat,0.82,51.415575,Leasehold,-0.2134377,465000.0,2018-10-19,residential
247,"6 Upper Grove, London, SE25 6JU",Non-Newbuild,highway,Flat,0.61,51.3975214,Leasehold,-0.0821212,260000.0,2018-10-19,residential
248,"Flat 2 30 Upper Berkeley Street, London, W1H 5QE",Non-Newbuild,highway,Flat,0.61,51.5151381,Leasehold,-0.1620418,395000.0,2018-10-19,tertiary
249,"Flat 29 Gilbert House Mcmillan Street, London, SE8 3DJ",Non-Newbuild,,Flat,,,Leasehold,,375000.0,2018-10-19,
250,"24 Holbeck Row, London, SE15 1QA",Non-Newbuild,highway,Terraced,0.51,51.4778252,Freehold,-0.0663482,490000.0,2018-10-19,residential
251,"Flat 3 Wardalls House Staunton Street, London, SE8 5LU",Non-Newbuild,,Flat,,,Leasehold,,302500.0,2018-10-19,
252,"45c Mayflower Road, London, SW9 9JY",Non-Newbuild,highway,Flat,0.51,51.4676598,Leasehold,-0.1266287,565000.0,2018-10-19,residential
253,"Flat 57 Edge Apartments, 1 Lett Road, London, E15 2HP",Non-Newbuild,,Flat,,,Leasehold,,310000.0,2018-10-19,
254,"Flat 42 Sir Francis Drake Court, 43 - 45 Banning Street, London, SE10 0FF",Non-Newbuild,,Flat,,,Leasehold,,445000.0,2018-10-19,
255,"The Ground Floor Flat At 5 Amner Road, London, SW11 6AA",Non-Newbuild,,Flat,,,Leasehold,,815000.0,2018-10-19,
256,"46 Langroyd Road, London, SW17 7PL",Non-Newbuild,highway,Terraced,0.61,51.4370266,Freehold,-0.1628562,945000.0,2018-10-19,residential
257,"Apartment 506 1 Eastfields Avenue, London, SW18 1FQ",Non-Newbuild,,Flat,,,Leasehold,,470000.0,2018-10-19,
258,"Flat 15 67 Cowley Road, London, SW9 6BW",Non-Newbuild,,Flat,,,Leasehold,,425000.0,2018-10-19,
259,"Flat 20 Oslo Tower Naomi Street, London, SE8 5EP",Non-Newbuild,,Flat,,,Leasehold,,575000.0,2018-10-19,
260,"Apartment 14 12 Lawn Lane, London, SW8 1UD",Non-Newbuild,,Flat,,,Leasehold,,425000.0,2018-10-19,
261,"Flat 97 Octavia House, 213 Townmead Road, London, SW6 2FJ",Non-Newbuild,,Flat,,,Leasehold,,845000.0,2018-10-18,
262,"316 Cable Street, London, E1 0AE",Non-Newbuild,highway,Flat,0.636030479075886,51.511092,Leasehold,-0.0551979,430500.0,2018-10-18,secondary
263,"94 Wormholt Road, Shepherds Bush, London, W12 0LP",Non-Newbuild,,Terraced,,,Freehold,,1215000.0,2018-10-18,
264,"130 Lower Marsh, London, SE1 7AE",Non-Newbuild,amenity,Terraced,0.621,51.50043875,Freehold,-0.113766816399213,300000.0,2018-10-18,restaurant
265,"78 Marten Road, London, E17 4NN",Non-Newbuild,place,Terraced,0.5309999999999999,51.5962788666667,Freehold,-0.0168837311111111,536000.0,2018-10-18,house
266,"66 Adamsrill Road, London, SE26 4AN",Non-Newbuild,highway,Semi Detached,0.61,51.429531,Freehold,-0.045383,540000.0,2018-10-18,residential
267,"5 Tilehurst Road, London, SW18 3EU",Non-Newbuild,highway,Terraced,0.5199999999999999,51.4430503,Freehold,-0.1771804,1180000.0,2018-10-18,residential
268,"6 Blakesley Court, 26 Blakesley Avenue, London, W5 2DU",Non-Newbuild,,Flat,,,Leasehold,,675000.0,2018-10-18,
269,"7 Routh Road, London, SW18 3SW",Non-Newbuild,highway,Detached,0.5199999999999999,51.448034,Freehold,-0.1693912,5500000.0,2018-10-18,residential
270,"14 Becmead Avenue, London, SW16 1UQ",Non-Newbuild,highway,,0.51,51.432149,Freehold,-0.1296447,39000.0,2018-10-18,residential
271,"Flat G01 Ceram Court, 10 Seven Sea Gardens, London, E3 3GW",Non-Newbuild,,Flat,,,Leasehold,,442000.0,2018-10-18,
272,"75 Nasmyth Street, London, W6 0HA",Non-Newbuild,highway,Terraced,0.61,51.4970419,Freehold,-0.2337173,1058275.0,2018-10-18,residential
273,"Flat 6 Maxclif House, 5 - 7 Tottenham Street, London, W1T 2AG",Non-Newbuild,,Flat,,,Leasehold,,465000.0,2018-10-18,
274,"Apartment 204 Binnacle House, 10 Cobblestone Square, London, E1W 3AR",Non-Newbuild,,Flat,,,Leasehold,,325000.0,2018-10-18,
275,"Flat 107 Andrewes House Barbican, London, EC2Y 8AY",Non-Newbuild,,Flat,,,Leasehold,,800000.0,2018-10-18,
276,"11 Douglas Road, London, NW6 7RN",Non-Newbuild,building,Terraced,0.621,51.54031305,Freehold,-0.202227099999998,895000.0,2018-10-18,yes
277,"121 Chatsworth Road, London, E5 0LA",Non-Newbuild,highway,Terraced,0.61,51.5569825,Freehold,-0.0464816,825000.0,2018-10-18,tertiary
278,"Flat 15 Mortimer Court Abbey Road, St Johns Wood, London, NW8 9AB",Non-Newbuild,,Flat,,,Leasehold,,427500.0,2018-10-18,
279,"99 South End Road, London, NW3 2RJ",Non-Newbuild,highway,Terraced,0.71,51.5572136,Freehold,-0.1682027,4275000.0,2018-10-18,residential
280,"11 Sandford Avenue, London, N22 5EJ",Non-Newbuild,highway,Terraced,0.51,51.6022242,Freehold,-0.0941082,460000.0,2018-10-18,residential
281,"4 Umbria Street, London, SW15 5DP",Non-Newbuild,highway,Detached,0.61,51.4518347,Freehold,-0.2414456,1860000.0,2018-10-18,residential
282,"412 Greenford Avenue, London, W7 3DB",Non-Newbuild,highway,Terraced,0.53,51.525369,Freehold,-0.3415454,630000.0,2018-10-18,tertiary
283,"80 First Avenue, London, W3 7JW",Non-Newbuild,highway,Semi Detached,0.61,51.5084867,Freehold,-0.2470215,850000.0,2018-10-18,residential
284,"74 Studland Road, London, W7 3QX",Non-Newbuild,highway,Terraced,0.5199999999999999,51.5189673,Freehold,-0.3441058,499999.0,2018-10-18,residential
285,"Flat 1 Electra Court 4 Heath Parade Grahame Park Way, London, NW9 5ZS",Non-Newbuild,,Flat,,,Leasehold,,391000.0,2018-10-18,
286,"Flat G12 The Beaux Arts Building, 10 - 18 Manor Gardens, London, N7 6JT",Non-Newbuild,,Flat,,,Leasehold,,592500.0,2018-10-18,
287,"27a Alexandra Road, London, NW4 2SB",Non-Newbuild,highway,Flat,0.51,51.5879409,Leasehold,-0.2154623,430000.0,2018-10-18,residential
288,"Flat 5 Courtney House Mulberry Close, London, NW4 1QN",Non-Newbuild,,Flat,,,Leasehold,,470000.0,2018-10-18,
289,"Flat 1 40 Marlborough Road, London, E18 1AP",Non-Newbuild,highway,Flat,0.71,51.5911142,Leasehold,0.0262232,386200.0,2018-10-18,residential
290,"4 Brampton Road, London, N15 3SX",Non-Newbuild,place,Terraced,0.42099999999999993,43.0061987443582,Freehold,-81.2327581615922,585000.0,2018-10-18,house
291,"Room At Mezzanine Level 49 Comeragh Road, London, W14 9HT",Non-Newbuild,,Flat,,,Leasehold,,200000.0,2018-10-18,
292,"74 Walpole Road, London, N17 6BL",Non-Newbuild,highway,Terraced,0.61,51.5925979,Freehold,-0.0903531,520000.0,2018-10-18,uncategoryified
293,"Flat 37 Mercury The Concourse, London, NW9 5XN",Non-Newbuild,,Flat,,,Leasehold,,158000.0,2018-10-18,
294,"Flat 1803 3 Pan Peninsula Square, London, E14 9HN",Non-Newbuild,,Flat,,,Leasehold,,600000.0,2018-10-18,
295,"Flat 3 24 Summerhill Road, London, N15 4HD",Non-Newbuild,highway,Flat,0.51,51.5862385,Leasehold,-0.0825023,316500.0,2018-10-18,residential
296,"51 Charnwood Drive, London, E18 1PF",Non-Newbuild,highway,Terraced,0.61,51.5864118,Freehold,0.0303253,650000.0,2018-10-18,residential
297,"Flat 27 Robert Owen House Fulham Palace Road, London, SW6 6JA",Non-Newbuild,,Flat,,,Leasehold,,390000.0,2018-10-18,
298,"The Orchard Farm End, London, E4 7QS",Non-Newbuild,landuse,Detached,0.201,51.3364075,Freehold,-1.1002008,1300000.0,2018-10-18,farm
299,"40 St Luke's Avenue, London, SW4 7LQ",Non-Newbuild,place,Terraced,0.821,51.4619043259259,Freehold,-0.132136133333333,1035000.0,2018-10-18,house
300,"50 Murray Road, London, SW19 4PE",Non-Newbuild,highway,Detached,0.5199999999999999,51.4222387,Freehold,-0.219896,3000000.0,2018-10-18,residential
301,"17 Graham Road, London, SW19 3SW",Non-Newbuild,highway,Terraced,0.5199999999999999,51.4163646,Freehold,-0.2045389,790550.0,2018-10-18,residential
302,"15f Copse Hill, London, SW20 0NB",Non-Newbuild,place,Detached,0.6599999999999999,51.4179455,Freehold,-0.240302,1900000.0,2018-10-18,suburb
303,"18c Stradella Road, Herne Hill, London, SE24 9HA",Non-Newbuild,highway,Flat,0.61,51.4498707,Leasehold,-0.0974727,712500.0,2018-10-18,residential
304,"56 Littleton Street, London, SW18 3SY",Non-Newbuild,building,Terraced,0.621,51.4383456,Freehold,-0.184022263488826,1258000.0,2018-10-18,yes
305,"33 Eastcombe Avenue, London, SE7 7JD",Non-Newbuild,highway,Terraced,0.51,51.4831868,Freehold,0.0241698,470000.0,2018-10-18,uncategoryified
306,"73 Red Post Hill, London, SE24 9PN",Non-Newbuild,highway,Terraced,0.71,51.4589151,Leasehold,-0.0927455,875000.0,2018-10-18,residential
307,"Flat 106 Lower Mast House Mast Quay, London, SE18 5NF",Non-Newbuild,,Flat,,,Leasehold,,315000.0,2018-10-18,
308,"4 Albans Close, 14 Leigham Court Road, Streatham, London, SW16 2PJ",Non-Newbuild,,Flat,,,Leasehold,,440000.0,2018-10-18,
309,"Flat 19 Falcon Point Hopton Street, London, SE1 9JW",Non-Newbuild,,Flat,,,Leasehold,,590000.0,2018-10-18,
310,"77 Dalmeny Avenue, London, SW16 4RR",Non-Newbuild,highway,Terraced,0.51,51.4056454,Freehold,-0.1136417,477000.0,2018-10-18,residential
311,"254a Dacre Park, London, SE13 5DD",Non-Newbuild,highway,Flat,0.51,51.4609203,Leasehold,0.0044834,543000.0,2018-10-18,residential
312,"Flat 107 Cinnamon Wharf, 24 Shad Thames, London, SE1 2YJ",Non-Newbuild,,Flat,,,Leasehold,,525000.0,2018-10-18,
313,"28a Altenburg Gardens, London, SW11 1JJ",Non-Newbuild,highway,Flat,0.5199999999999999,51.4625371,Leasehold,-0.1627862,495000.0,2018-10-18,residential
314,"12 Quilters Place, London, SE9 2BF",Non-Newbuild,highway,Flat,0.61,51.4379988,Leasehold,0.0749113,122500.0,2018-10-18,residential
315,"Flat 2 190 Westcombe Hill, London, SE3 7DH",Non-Newbuild,,Flat,,,Leasehold,,390000.0,2018-10-18,
316,"Flat 1 Walpole House, 126 Westminster Bridge Road, London, SE1 7UN",Non-Newbuild,,Flat,,,Leasehold,,480000.0,2018-10-18,
317,"151a Benares Road, London, SE18 1HU",Non-Newbuild,highway,Terraced,0.51,51.4878789,Leasehold,0.0979545,250000.0,2018-10-18,residential
318,"16 Godstow Road, London, SE2 9BA",Non-Newbuild,highway,Detached,0.51,51.4970448,Freehold,0.1184342,405000.0,2018-10-18,residential
319,"94 Goldfinch Road, London, SE28 0DG",Non-Newbuild,highway,Terraced,0.61,51.4972635,Freehold,0.0871864,310000.0,2018-10-18,residential
320,"11 Wrights Close, London, SE13 5HP",Non-Newbuild,highway,Terraced,0.41000000000000003,51.5522663,Freehold,0.1582059,415000.0,2018-10-18,uncategoryified
321,"148 Shardeloes Road, London, SE14 6RS",Non-Newbuild,highway,Terraced,0.51,51.468996,Freehold,-0.0359863,515000.0,2018-10-17,tertiary
322,"Flat 20 Sentinel House Sentinel Square, London, NW4 2EN",Non-Newbuild,,Flat,,,Leasehold,,270000.0,2018-10-17,
323,"Flat 2 Bramham Gardens, London, SW5 0JE",Non-Newbuild,highway,Flat,0.61,51.490671,Freehold,-0.1900161,1650000.0,2018-10-17,residential
324,"Flat 8 Storey Court, 39 St Johns Wood Road, London, NW8 8QX",Non-Newbuild,,Flat,,,Leasehold,,340000.0,2018-10-17,
325,"79a Churchfields, London, E18 2RB",Non-Newbuild,highway,Flat,0.42000000000000004,51.598698,Leasehold,0.024545,335000.0,2018-10-17,residential
326,"5 Crespigny Road, London, NW4 3DT",Non-Newbuild,highway,Detached,0.51,51.5805559,Freehold,-0.2295675,842500.0,2018-10-17,residential
327,"Flat D 7 Vera Road, London, SW6 6RW",Non-Newbuild,,Flat,,,Leasehold,,515000.0,2018-10-17,
328,"Flat 23 Bramerton, 213 - 215 Willesden Lane, London, NW6 7YT",Non-Newbuild,,Flat,,,Leasehold,,365000.0,2018-10-17,
329,"10a Albion Grove, London, N16 8RG",Non-Newbuild,highway,Flat,0.51,51.5570999,Leasehold,-0.0814701,744168.0,2018-10-17,residential
330,"31 Hester Road, London, N18 2RF",Non-Newbuild,highway,Terraced,0.51,51.6118547,Freehold,-0.0635758,350000.0,2018-10-17,residential
331,"Flat 4 18 Colville Road, London, W11 2BS",Non-Newbuild,highway,Flat,0.51,51.5581047,Leasehold,-0.0041543,850000.0,2018-10-17,residential
332,"10 Napier Avenue, London, SW6 3PT",Non-Newbuild,highway,Terraced,0.51,51.4687141,Freehold,-0.2054106,3925000.0,2018-10-17,residential
333,"Flat 6 Vincent Court Bell Lane, London, NW4 2AN",Non-Newbuild,,Flat,,,Leasehold,,450000.0,2018-10-17,
334,"Flat 1 Bryanston House Dorset Street, London, W1U 6QU",Non-Newbuild,,Flat,,,Leasehold,,1350000.0,2018-10-17,
335,"Ground Floor Flat 31 Woodlands Road, Walthamstow, London, E17 3LD",Non-Newbuild,,,,,Freehold,,5000.0,2018-10-17,
336,"47 Harvist Road, London, NW6 6EX",Non-Newbuild,building,Semi Detached,0.5209999999999999,51.53406165,Freehold,-0.20729109407614,1950000.0,2018-10-17,yes
337,"Flat 8 Canterbury Court, 336a Baring Road, London, SE12 0DU",Non-Newbuild,,,,,Freehold,,45000.0,2018-10-17,
338,"Flat 24 Constable House Cassilis Road, London, E14 9LH",Non-Newbuild,,Flat,,,Leasehold,,365000.0,2018-10-17,
339,"98a London Road, London, SE23 3PE",Non-Newbuild,highway,Flat,0.62,51.4405342,Leasehold,-0.0601603,300000.0,2018-10-17,trunk
340,"43 Sixth Avenue, London, E12 5PP",Non-Newbuild,building,Terraced,0.42099999999999993,51.528894,Freehold,-0.21347368773132,400000.0,2018-10-17,yes
341,"Suite 5 Russell House, 37 Great Russell Street, London, WC1B 3PP",Non-Newbuild,,,,,Freehold,,5148352.0,2018-10-17,
342,"70 O'leary Square, London, E1 3AR",Non-Newbuild,highway,Flat,0.6849999999999999,51.5201714,Leasehold,-0.0532827,370000.0,2018-10-17,footway
343,"Flat 1 Abacus House, 238 Peckham Rye, London, SE22 0LR",Non-Newbuild,,Flat,,,Leasehold,,487500.0,2018-10-17,
344,"186 Southfield Road, London, W4 5LD",Non-Newbuild,highway,Flat,0.51,51.5026357,Leasehold,-0.2589303,750000.0,2018-10-17,secondary
345,"38a Hamilton Crescent, London, N13 5LW",Non-Newbuild,highway,Flat,0.61,51.6167905,Leasehold,-0.102905,348000.0,2018-10-17,residential
346,"Flat 149 Ashcroft Square King Street, London, W6 0YN",Non-Newbuild,,Flat,,,Leasehold,,272000.0,2018-10-17,
347,"81 Colfe Road, London, SE23 2EX",Non-Newbuild,highway,Terraced,0.61,51.4397842,Freehold,-0.0440673,570000.0,2018-10-17,residential
348,"Flat 14 Regis Place, 10 Llanvanor Road, London, NW2 2AP",Non-Newbuild,,Flat,,,Leasehold,,950000.0,2018-10-17,
349,"21 Mill Lane, London, NW6 1NT",Non-Newbuild,place,Terraced,0.411,41.3382733382202,Freehold,-72.3225243293553,1160000.0,2018-10-17,house
350,"1 Greenham Road, London, N10 1LN",Non-Newbuild,highway,Semi Detached,0.71,51.5984353,Freehold,-0.1476552,1225000.0,2018-10-17,residential
351,"75 Queens Road, London, SW14 8PH",Non-Newbuild,building,Terraced,0.5209999999999999,51.46587375,Freehold,-0.259281380388465,825000.0,2018-10-17,yes
352,"Flat 208 Dakota Building Deals Gateway, London, SE13 7QE",Non-Newbuild,,Flat,,,Leasehold,,410000.0,2018-10-17,
353,"Flat 46 River Court Upper Ground, London, SE1 9PE",Non-Newbuild,,Flat,,,Leasehold,,1510000.0,2018-10-17,
354,"Flat 69 Redman House Lant Street, London, SE1 1QW",Non-Newbuild,,Flat,,,Leasehold,,350000.0,2018-10-17,
355,"107 Bennerley Road, London, SW11 6DT",Non-Newbuild,building,Terraced,0.5209999999999999,51.4585779,Freehold,-0.164471341420583,1397000.0,2018-10-17,yes
356,"55 Farmer Road, London, E10 5DL",Non-Newbuild,,Semi Detached,,,Freehold,,570000.0,2018-10-17,
357,"132 Warren Road, London, NW2 7NJ",Non-Newbuild,highway,Terraced,0.51,51.5653998,Freehold,-0.2434846,483000.0,2018-10-17,residential
358,"15 Headington Road, Earlsfield, London, SW18 3PR",Non-Newbuild,highway,Terraced,0.51,51.4413125,Freehold,-0.1817679,774000.0,2018-10-17,residential
359,"51 Solent Road, London, NW6 1TY",Non-Newbuild,highway,Terraced,0.51,51.5507672,Freehold,-0.1967375,1425000.0,2018-10-17,residential
360,"24 Sunbury Avenue, London, SW14 8RA",Non-Newbuild,building,Semi Detached,0.621,51.4614524,Freehold,-0.26026597433281,1345000.0,2018-10-17,yes
361,"7 Schoolbell Mews, London, E3 5BZ",Non-Newbuild,highway,Terraced,0.585,51.5299546,Freehold,-0.0362703,900000.0,2018-10-17,service
362,"44 Gore Road, London, SW20 8JL",Non-Newbuild,building,Terraced,0.621,51.40786005,Freehold,-0.228412213155215,570000.0,2018-10-17,yes
363,"Flat 2 217 Sussex Gardens, London, W2 2RJ",Non-Newbuild,,Flat,,,Leasehold,,1200000.0,2018-10-17,
364,"30 Sylvan Hill, London, SE19 2QD",Non-Newbuild,highway,Flat,0.61,51.4121145,Leasehold,-0.08138,322275.0,2018-10-17,residential
365,"Flat 25 Beaufort Court, 65 Maygrove Road, London, NW6 2DA",Non-Newbuild,,Flat,,,Leasehold,,567500.0,2018-10-17,
366,"1 Walnut Tree Road, London, SE10 9EU",Non-Newbuild,highway,Terraced,0.71,51.4845652,Freehold,0.0082227,720000.0,2018-10-17,residential
367,"Flat H 166 Sutherland Avenue, London, W9 1HR",Non-Newbuild,,Flat,,,Leasehold,,531000.0,2018-10-17,
368,"Flat 2 Kilner House Clayton Street, London, SE11 5SE",Non-Newbuild,,Flat,,,Leasehold,,480000.0,2018-10-17,
369,"27 Fairfax Road, London, W4 1EN",Non-Newbuild,highway,Terraced,0.51,51.4985386,Freehold,-0.2514289,2450000.0,2018-10-17,residential
370,"24 Coston Walk, London, SE4 2LS",Non-Newbuild,,Terraced,,,Leasehold,,405000.0,2018-10-17,
371,"15 Lambourne Gardens, London, E4 7SG",Non-Newbuild,,Terraced,,,Freehold,,570000.0,2018-10-17,
372,"23 Peabody Cottages, West Dulwich, London, SE24 9DN",Non-Newbuild,,Terraced,,,Freehold,,670000.0,2018-10-17,
373,"11 Osterley Park View Road, London, W7 2HG",Non-Newbuild,highway,Terraced,0.71,51.5042124,Freehold,-0.3373449,725000.0,2018-10-17,residential
374,"62 Sprules Road, London, SE4 2NN",Non-Newbuild,highway,Semi Detached,0.51,51.4674841,Leasehold,-0.0398095,442000.0,2018-10-17,residential
375,"55 Friern Watch Avenue, London, N12 9NY",Non-Newbuild,highway,Semi Detached,0.61,51.6192296,Freehold,-0.1729989,850000.0,2018-10-17,residential
376,"4 Thriffwood, London, SE26 4SH",Non-Newbuild,highway,Semi Detached,0.62,51.431041,Freehold,-0.0517085,465000.0,2018-10-17,residential
377,"59 Twyford Avenue, London, W3 9PZ",Non-Newbuild,highway,,0.51,51.5089422,Freehold,-0.2810767,33600.0,2018-10-16,tertiary
378,"19c Hornsey Rise Gardens, London, N19 3PP",Non-Newbuild,highway,Flat,0.61,51.5736453,Leasehold,-0.1258247,478500.0,2018-10-16,residential
379,"Flat 3 Upton Court The Downs, London, SW20 8JB",Non-Newbuild,,Flat,,,Freehold,,150000.0,2018-10-16,
380,"Flat 1 3 - 4 St Andrews Hill, London, EC4V 5BY",Non-Newbuild,,Flat,,,Leasehold,,640000.0,2018-10-16,
381,"50 Kay Road, London, SW9 9DE",Non-Newbuild,highway,,0.51,51.4680857,Freehold,-0.1223855,15694.0,2018-10-16,residential
382,"Flat 39 Regency Court, 89 - 111 High Road, South Woodford, London, E18 2JT",Non-Newbuild,,Flat,,,Leasehold,,465000.0,2018-10-16,
383,"Flat 6 Whimbrell Court, 47 Swan Drive, London, NW9 5DG",Non-Newbuild,,Flat,,,Leasehold,,325000.0,2018-10-16,
384,"Flat 3 34 Gloucester Drive, London, N4 2LN",Non-Newbuild,,Flat,,,Leasehold,,690000.0,2018-10-16,
385,"Flat 7 91 Newington Causeway, London, SE1 6BN",Non-Newbuild,,Flat,,,Leasehold,,226931.0,2018-10-16,
386,"19c Ashley Road, London, N19 3AG",Non-Newbuild,highway,Flat,0.61,51.5719279,Leasehold,-0.1209262,590000.0,2018-10-16,residential
387,"Flat 5 91 Newington Causeway, London, SE1 6BN",Non-Newbuild,,Flat,,,Leasehold,,283657.0,2018-10-16,
388,"14 Leith Road, London, N22 5QA",Non-Newbuild,highway,Terraced,0.61,51.6017391,Freehold,-0.1016441,680000.0,2018-10-16,residential
389,"Flat 7 Longfield House, 18 - 20 Uxbridge Road, London, W5 2SR",Non-Newbuild,,Flat,,,Leasehold,,365000.0,2018-10-16,
390,"Flat 438 Nell Gwynn House Sloane Avenue, London, SW3 3BB",Non-Newbuild,,Flat,,,Leasehold,,650000.0,2018-10-16,
391,"Flat 1 Elijah House, 88 Harmony Close, London, NW11 0BF",Non-Newbuild,,Flat,,,Leasehold,,212750.0,2018-10-16,
392,"33 Tonsley Hill, London, SW18 1BE",Non-Newbuild,highway,Terraced,0.51,51.4595806,Freehold,-0.1891007,1350000.0,2018-10-16,residential
393,"Flat 2 128 Lower Clapton Road, London, E5 0QR",Non-Newbuild,,Flat,,,Leasehold,,775000.0,2018-10-16,
394,"Garden Flat 72 Church Lane, London, N2 0TE",Non-Newbuild,,Flat,,,Leasehold,,277500.0,2018-10-16,
395,"10 Craven Hill Mews, London, W2 3DY",Non-Newbuild,highway,Terraced,0.71,51.5133955,Freehold,-0.181551,1200000.0,2018-10-16,residential
396,"Flat 6 2 Blackdown Close, London, N2 8JF",Non-Newbuild,,Flat,,,Leasehold,,285000.0,2018-10-16,
397,"89 Windsor Road, London, E7 0QY",Non-Newbuild,highway,Terraced,0.51,51.54753,Freehold,0.0282089,800000.0,2018-10-16,residential
398,"10 Dawn Crescent, London, E15 3PB",Non-Newbuild,,Flat,,,Leasehold,,190000.0,2018-10-16,
399,"Flat 2 Heathview Court, 20 Corringway, London, NW11 7EF",Non-Newbuild,,Flat,,,Leasehold,,380000.0,2018-10-16,
400,"7 Mulberry Place, London, W6 9TY",Non-Newbuild,highway,Terraced,0.51,51.4899513,Freehold,-0.2433872,745000.0,2018-10-16,residential
401,"22 Petworth Road, London, N12 9HH",Non-Newbuild,highway,Semi Detached,0.51,51.6130828,Freehold,-0.1627111,710000.0,2018-10-16,residential
402,"First Floor Flat 91 Gipsy Hill, London, SE19 1QL",Non-Newbuild,,Flat,,,Leasehold,,480000.0,2018-10-16,
403,"17 Gainsborough Gardens, London, NW11 9BJ",Non-Newbuild,place,Semi Detached,0.32100000000000006,51.554370577681,Freehold,-0.335267650487773,1045000.0,2018-10-16,house
404,"Flat 11 Thistley Court Glaisher Street, London, SE8 3JW",Non-Newbuild,,Flat,,,Leasehold,,585000.0,2018-10-16,
405,"Flat 241 Lauderdale Tower Barbican, London, EC2Y 8BY",Non-Newbuild,,Flat,,,Leasehold,,1925000.0,2018-10-16,
406,"22 Brookwood Avenue, London, SW13 0LR",Non-Newbuild,highway,Semi Detached,0.61,51.4707206,Freehold,-0.2470511,1280000.0,2018-10-16,residential
407,"112 Old Park Ridings, London, N21 2EP",Non-Newbuild,place,Detached,0.621,51.6454363,Freehold,-0.0918348,1400000.0,2018-10-16,house
408,"51 Derwent Road, London, SW20 9NH",Non-Newbuild,highway,Flat,0.61,51.3927385,Leasehold,-0.2246641,246000.0,2018-10-16,residential
409,"27 Harington Terrace Great Cambridge Road, London, N18 1JX",Non-Newbuild,,Terraced,,,Freehold,,385000.0,2018-10-16,
410,"4 Southbourne Avenue, London, NW9 5BT",Non-Newbuild,highway,Semi Detached,0.61,51.5980896,Freehold,-0.2603181,510000.0,2018-10-16,residential
411,"3 Beaulieu Gardens, London, N21 2HR",Non-Newbuild,highway,Semi Detached,0.61,51.6338628,Freehold,-0.0918389,890000.0,2018-10-16,residential
412,"15d Copse Hill, London, SW20 0NB",Non-Newbuild,place,Detached,0.6599999999999999,51.4179455,Freehold,-0.240302,1995000.0,2018-10-16,suburb
413,"62g Randolph Avenue, London, W9 1BE",Non-Newbuild,highway,Flat,0.5199999999999999,51.5276279,Leasehold,-0.1831778,1770000.0,2018-10-16,residential
414,"Flat 25 Priory Grove School, 10 Priory Grove, London, SW8 2PH",Non-Newbuild,,Flat,,,Leasehold,,680000.0,2018-10-16,
415,"31 St Mary's Grove, London, N1 2NT",Non-Newbuild,highway,Terraced,0.8099999999999999,51.5450909,Freehold,-0.0981317,1245000.0,2018-10-16,residential
416,"Flat 3 37 Barrow Road, Streatham, London, SW16 5PE",Non-Newbuild,highway,Flat,0.72,51.42176,Leasehold,-0.1321653,299000.0,2018-10-16,residential
417,"Flat B 6 Courtfield Gardens, London, SW5 0PA",Non-Newbuild,,Flat,,,Leasehold,,500000.0,2018-10-16,
418,"127 South Norwood Hill, London, SE25 6DD",Non-Newbuild,highway,Semi Detached,0.61,51.4042651,Freehold,-0.0814893,370000.0,2018-10-16,primary
419,"56 Ashbourne Avenue, London, NW11 0DS",Non-Newbuild,highway,Terraced,0.51,51.5855646,Freehold,-0.202152,1150000.0,2018-10-16,residential
420,"15 Burgos Grove, London, SE10 8LL",Non-Newbuild,highway,Terraced,0.61,51.4747497,Freehold,-0.01914,780000.0,2018-10-16,residential
421,"41 Lefroy Road, London, W12 9LF",Non-Newbuild,highway,Terraced,0.61,51.5034979,Freehold,-0.249983,760000.0,2018-10-16,residential
422,"Flat 2 24 Mason Street, London, SE17 1HF",Non-Newbuild,highway,Flat,0.6,-32.9720859,Leasehold,27.9282109,397000.0,2018-10-16,residential
423,"105 Waterfall Road, London, N11 1BT",Non-Newbuild,highway,Semi Detached,0.51,51.6199149,Freehold,-0.1377153,810000.0,2018-10-16,primary
424,"38 Camberwell Grove, Camberwell, London, SE5 8RE",Non-Newbuild,highway,Terraced,0.73,51.4724173,Freehold,-0.0881062,1800000.0,2018-10-16,residential
425,"135 Abbots Gardens, London, N2 0JJ",Non-Newbuild,highway,Semi Detached,0.51,51.5886346,Freehold,-0.1713215,1410000.0,2018-10-16,residential
426,"83 Chestnut Road, London, SE27 9LD",Non-Newbuild,place,Semi Detached,0.411,39.8242758181818,Leasehold,-75.8188069090909,445000.0,2018-10-16,house
427,"29 Courtnell Street, London, W2 5BU",Non-Newbuild,highway,Terraced,0.61,51.5162321,Freehold,-0.1988211,4500000.0,2018-10-16,residential
428,"104 Becklow Road, London, W12 9HJ",Non-Newbuild,highway,Terraced,0.51,51.5061239,Freehold,-0.2410151,1020000.0,2018-10-16,residential
429,"69 Talfourd Road, London, SE15 5NN",Non-Newbuild,building,Terraced,0.5309999999999999,51.4712629,Freehold,-0.0770742812386152,1300000.0,2018-10-16,yes
430,"69 Durban Road, London, N17 8ED",Non-Newbuild,highway,Terraced,0.61,51.6077696,Freehold,-0.0727921,240000.0,2018-10-16,residential
431,"116 Woodhill, London, SE18 5JL",Non-Newbuild,highway,Semi Detached,0.42000000000000004,51.4913172,Freehold,0.048779,515000.0,2018-10-16,residential
432,"69 Denmark Road, London, SW19 4PQ",Non-Newbuild,highway,Terraced,0.51,51.4204154,Freehold,-0.2185508,760000.0,2018-10-16,residential
433,"194 Squires Lane, London, N3 2QT",Non-Newbuild,highway,Flat,0.61,51.5985737,Leasehold,-0.1843897,415000.0,2018-10-16,tertiary
434,"32 West Heath Drive, London, NW11 7QH",Non-Newbuild,highway,Semi Detached,0.61,51.5699572,Freehold,-0.1933784,3150000.0,2018-10-16,residential
435,"Flat G 114 - 118 Brixton Road, London, SW9 6BD",Non-Newbuild,,Flat,,,Leasehold,,410000.0,2018-10-16,
436,"383 Euston Road, London, NW1 3AU",Non-Newbuild,highway,,0.61,51.5238912,Leasehold,-0.1431906,7839588.0,2018-10-15,trunk
437,"250 Haverstock Hill, London, NW3 2AE",Non-Newbuild,highway,,0.61,51.5516598,Freehold,-0.1665942,3455392.0,2018-10-15,primary
438,"Flat 27 Bredgar Lewisham Park, London, SE13 6QN",Non-Newbuild,,Flat,,,Leasehold,,220000.0,2018-10-15,
439,"1356a London Road, London, SW16 4DE",Non-Newbuild,highway,Terraced,0.62,51.4091295,Freehold,-0.1221582,220000.0,2018-10-15,trunk
440,"75 Corry Drive, London, SW9 8QS",Non-Newbuild,highway,Terraced,0.61,51.4602051,Freehold,-0.1063431,457000.0,2018-10-15,residential
441,"204 South Lambeth Road, London, SW8 1UX",Non-Newbuild,highway,Flat,0.61,51.4855442,Freehold,-0.1222598,825000.0,2018-10-15,trunk
442,"206 Bermondsey Street, London, SE1 3TQ",Non-Newbuild,highway,,0.51,51.5004207,Freehold,-0.0817157,115000.0,2018-10-15,primary
443,"Flat 84 2a St Luke's Avenue, London, SW4 7EB",Non-Newbuild,,Flat,,,Leasehold,,540000.0,2018-10-15,
444,"Flat 1 61 Kennington Park Road, London, SE11 4JQ",Non-Newbuild,highway,,0.72,51.484505,Leasehold,-0.1098672,558800.0,2018-10-15,trunk
445,"Unit B1 208 Bermondsey Street, London, SE1 3TQ",Non-Newbuild,,,,,Leasehold,,820000.0,2018-10-15,
446,"Flat 10 Venture Court, 206 Bermondsey Street, London, SE1 3FE",Non-Newbuild,,,,,Leasehold,,950000.0,2018-10-15,
447,"77 Talbot Walk, London, NW10 9HU",Non-Newbuild,,Flat,,,Leasehold,,250000.0,2018-10-15,
448,"2 Grummant Road, London, SE15 5NQ",Non-Newbuild,building,,0.5209999999999999,51.4736742,Freehold,-0.0755753079192543,500.0,2018-10-15,yes
449,"Buspace Studios Conlan Street, London, W10 5AP",Non-Newbuild,,,,,Leasehold,,770000.0,2018-10-15,
450,"204 The Grove, London, E15 1NS",Non-Newbuild,shop,,0.621,51.5455117,Freehold,0.004368,675000.0,2018-10-15,butcher
451,"Flat 10 10 Ellingfort Road, London, E8 3PA",Non-Newbuild,,Flat,,,Leasehold,,635000.0,2018-10-15,
452,"235 Nightingale Road, London, N9 8QL",Non-Newbuild,place,Terraced,0.621,51.6305965,Freehold,-0.0434632,385000.0,2018-10-15,house
453,"14 Kemsing Road, London, SE10 0LL",Non-Newbuild,highway,Terraced,0.51,51.4852689,Freehold,0.0164138,775000.0,2018-10-15,residential
454,"32 Chepstow Villas, London, W11 2QZ",Non-Newbuild,place,Semi Detached,0.5209999999999999,51.5132917,Freehold,-0.1994634,5950000.0,2018-10-15,house
455,"Flat 32 Oslo Court Prince Albert Road, London, NW8 7EN",Non-Newbuild,,Flat,,,Leasehold,,470000.0,2018-10-15,
456,"24 Amhurst Road, London, E8 1JN",Non-Newbuild,building,Flat,0.621,51.5479621,Freehold,-0.056370467750019,246000.0,2018-10-15,yes
457,"Apartment 607 Bootmakers Court, 132 Ben Jonson Road, London, E1 4GJ",Non-Newbuild,,Flat,,,Leasehold,,505000.0,2018-10-15,
458,"74 Leicester Road, London, N2 9EA",Non-Newbuild,highway,Terraced,0.61,51.5909771,Freehold,-0.1642637,1100000.0,2018-10-15,residential
459,"12 Ducie Street, London, SW4 7RW",Non-Newbuild,place,Terraced,0.5209999999999999,51.4623445333333,Freehold,-0.122932466666667,950000.0,2018-10-15,house
460,"4 Standen Road, London, SW18 5TQ",Non-Newbuild,highway,Terraced,0.61,51.4470586,Freehold,-0.2008519,1050000.0,2018-10-15,residential
461,"Flat 24 Brunswick Court Regency Street, London, SW1P 4AE",Non-Newbuild,,Flat,,,Leasehold,,555000.0,2018-10-15,
462,"21 Tetherdown, London, N10 1ND",Non-Newbuild,highway,Terraced,0.52,51.5930565,Freehold,-0.1496522,790000.0,2018-10-15,tertiary
463,"48 Holme Lacey Road, London, SE12 0HR",Non-Newbuild,highway,Semi Detached,0.61,51.4493716,Freehold,0.0125923,585000.0,2018-10-15,residential
464,"Flat 4 19 Bowling Green Lane, London, EC1R 0BD",Non-Newbuild,highway,Flat,0.61,51.5244158,Leasehold,-0.1077387,1042000.0,2018-10-15,uncategoryified
465,"10 Cruden Street, London, N1 8NJ",Non-Newbuild,highway,Terraced,0.5199999999999999,51.536127,Freehold,-0.0998961,1284000.0,2018-10-15,residential
466,"107 Avenue Mews, London, N10 3NN",Non-Newbuild,highway,Flat,0.51,51.5910453,Leasehold,-0.1432065,160000.0,2018-10-15,residential
467,"Flat C 45 West Bank, London, N16 5DF",Non-Newbuild,,Flat,,,Leasehold,,385000.0,2018-10-15,
468,"24 Midhurst Avenue, London, N10 3EN",Non-Newbuild,highway,Terraced,0.41000000000000003,51.3862027,Freehold,-0.1115293,1635000.0,2018-10-15,residential
469,"Flat 29 Gallery Court, 63 Fulbourne Road, London, E17 4EZ",Non-Newbuild,,Flat,,,Leasehold,,216000.0,2018-10-15,
470,"Flat 603 3 Pan Peninsula Square, London, E14 9HN",Non-Newbuild,,Flat,,,Leasehold,,540000.0,2018-10-15,
471,"Flat 1 Albion Buildings, 1 Albion Walk, London, N1 9BZ",Non-Newbuild,,Flat,,,Leasehold,,950000.0,2018-10-15,
472,"Flat 7 Sunny Lodge, 33a Sunningfields Road, London, NW4 4QU",Non-Newbuild,,Flat,,,Leasehold,,385000.0,2018-10-15,
473,"140a North View Road, London, N8 7LP",Non-Newbuild,highway,Flat,0.61,51.590689,Leasehold,-0.1269727,510000.0,2018-10-15,residential
474,"Flat 24 Highbury Grove Court Highbury Grove, London, N5 2NG",Non-Newbuild,,Flat,,,Leasehold,,500000.0,2018-10-15,
475,"Flat 23 Mallard House Station Court, London, SW6 2BF",Non-Newbuild,,Flat,,,Leasehold,,316000.0,2018-10-15,
476,"47 Bradwell Close, London, E18 2BT",Non-Newbuild,highway,Flat,0.61,51.5860132,Leasehold,0.0147883,300000.0,2018-10-15,residential
477,"Ground Floor Flat 8 Buckland Crescent, London, NW3 5DX",Non-Newbuild,,Flat,,,Leasehold,,1370000.0,2018-10-15,
478,"Ground Floor Flat 42 Cornwall Avenue, London, N22 7DA",Non-Newbuild,,Flat,,,Leasehold,,500000.0,2018-10-15,
479,"Flat 8 Gascoyne House Gascoyne Road, London, E9 7BH",Non-Newbuild,,Flat,,,Leasehold,,295000.0,2018-10-15,
480,"Flat 2 102 Sumatra Road, London, NW6 1PG",Non-Newbuild,highway,Flat,0.51,51.5491613,Leasehold,-0.1956191,325000.0,2018-10-15,residential
481,"Ground Floor 61 Fleet Street, London, EC4Y 1JU",Non-Newbuild,,,,,Leasehold,,60000.0,2018-10-15,
482,"19 Bayliss Close, London, N21 1SP",Non-Newbuild,highway,Terraced,0.61,51.6466189,Freehold,-0.1178368,450000.0,2018-10-15,residential
483,"32 Corri Avenue, London, N14 7HL",Non-Newbuild,highway,Detached,0.51,51.619428,Freehold,-0.1263009,1050000.0,2018-10-15,residential
484,"Northdale House North Circular Road, London, NW10 7UG",Non-Newbuild,,,,,Freehold,,19150000.0,2018-10-15,
485,"14 Vantage Mews, London, E14 9NY",Non-Newbuild,highway,Flat,0.6849999999999999,51.503443,Leasehold,-0.0076764,490000.0,2018-10-15,service
486,"2 Bittacy Park Avenue, London, NW7 2HA",Non-Newbuild,highway,Detached,0.8099999999999999,51.6139141,Freehold,-0.2157481,952500.0,2018-10-15,residential
487,"Flat 2 40 - 41 Wimpole Street, London, W1G 8AB",Non-Newbuild,,Flat,,,Leasehold,,1350000.0,2018-10-15,
488,"129 Katherine Road, London, E6 1ES",Non-Newbuild,highway,Terraced,0.51,51.5369149,Freehold,0.0449901,365000.0,2018-10-15,secondary
489,"37 Engel Park, London, NW7 2HE",Non-Newbuild,highway,Semi Detached,0.61,51.6123851,Freehold,-0.2173113,675000.0,2018-10-15,residential
490,"Flat 2 345 Ladbroke Grove, London, W10 6HA",Non-Newbuild,,Flat,,,Leasehold,,490000.0,2018-10-15,
491,"79a Elderfield Road, London, E5 0LE",Non-Newbuild,highway,Flat,0.61,51.5552455,Leasehold,-0.0467144,620000.0,2018-10-15,residential
492,"Flat 15 Regency House, 269 Regents Park Road, London, N3 3JZ",Non-Newbuild,,Flat,,,Leasehold,,670000.0,2018-10-15,
493,"Flat 8 Mentone Mansions Fulham Road, London, SW10 9UX",Non-Newbuild,,Flat,,,Leasehold,,682500.0,2018-10-15,
494,"Flat 17 Altius Apartments, 714 Wick Lane, London, E3 2PZ",Non-Newbuild,,Flat,,,Leasehold,,400000.0,2018-10-15,
495,"120 Hoppers Road, London, N21 3LH",Non-Newbuild,highway,Terraced,0.51,51.6327064,Freehold,-0.1027908,650000.0,2018-10-15,tertiary
496,"Flat 39 Burtonwood House Woodberry Down Estate, London, N4 2RX",Non-Newbuild,,Flat,,,Leasehold,,390000.0,2018-10-15,
497,"24 Elmsdale Road, London, E17 6PW",Non-Newbuild,place,Terraced,0.5309999999999999,51.5858548,Freehold,-0.027637,925000.0,2018-10-15,house
498,"44 Radcliffe Road, London, N21 2SE",Non-Newbuild,highway,Terraced,0.61,51.633394,Freehold,-0.0964395,795000.0,2018-10-15,residential
499,"7 Mildmay Grove North, London, N1 4RH",Non-Newbuild,highway,Terraced,0.6199999999999999,51.549105,Freehold,-0.0858672,1200000.0,2018-10-15,tertiary
500,"3 Monsell Road, London, N4 2EF",Non-Newbuild,highway,Terraced,0.51,51.5606885,Freehold,-0.1023512,920000.0,2018-10-15,residential
501,"18a Yukon Road, London, SW12 9PU",Non-Newbuild,highway,Flat,0.5199999999999999,51.4492762,Leasehold,-0.1458151,430000.0,2018-10-15,residential
502,"93c Central Hill, London, SE19 1BY",Non-Newbuild,highway,Flat,0.5199999999999999,51.422544,Leasehold,-0.0926553,310000.0,2018-10-15,primary
503,"49 Clevedon Road, London, SE20 7QQ",Non-Newbuild,highway,Terraced,0.51,51.4113862,Freehold,-0.0494562,635000.0,2018-10-15,residential
504,"2 Marrick Close, London, SW15 5RA",Non-Newbuild,highway,Flat,0.61,51.4644455,Leasehold,-0.239483,455000.0,2018-10-15,residential
505,"Flat 11 Lanherne House, 9 The Downs, London, SW20 8JG",Non-Newbuild,,Flat,,,Leasehold,,620000.0,2018-10-15,
506,"83 Pages Walk, London, SE1 4HD",Non-Newbuild,highway,Terraced,0.41000000000000003,51.4936743,Freehold,-0.0817166,945000.0,2018-10-15,residential
507,"10 Harcourt Road, London, SW19 1LS",Non-Newbuild,building,Terraced,0.42099999999999993,51.46254565,Freehold,-0.0364034055687651,795000.0,2018-10-15,yes
508,"24 Belvedere Square, Wimbledon, London, SW19 5DJ",Non-Newbuild,highway,Terraced,0.71,51.4262959,Freehold,-0.2168167,640000.0,2018-10-15,residential
509,"Ground Floor Maisonette 14 Langdale Road, London, SE10 8UA",Non-Newbuild,,Flat,,,Leasehold,,615000.0,2018-10-15,
510,"18 Burghley Road, London, SW19 5BH",Non-Newbuild,highway,Detached,0.51,51.4302118,Freehold,-0.2158819,3275000.0,2018-10-15,tertiary
511,"Flat 16 St. Asaph Court St Asaph Road, London, SE4 2EE",Non-Newbuild,,Flat,,,Leasehold,,300000.0,2018-10-15,
512,"28 Parkside, London, SW19 5NB",Non-Newbuild,building,Detached,0.4310000000000001,51.4282289,Freehold,-0.223121470007799,15250000.0,2018-10-15,yes
513,"Flat 47 Mermaid Court Rotherhithe Street, London, SE16 5UB",Non-Newbuild,,Flat,,,Leasehold,,410000.0,2018-10-15,
514,"4 Foundry Place, London, SW18 4NL",Non-Newbuild,place,Terraced,0.31100000000000005,41.4857761196368,Freehold,-72.035429247304,637500.0,2018-10-15,house
515,"Flat 4 12 - 13 Louvaine Road, London, SW11 2AQ",Non-Newbuild,,Flat,,,Leasehold,,475000.0,2018-10-15,
516,"Flat 437 8 St George Wharf, London, SW8 2LW",Non-Newbuild,,Flat,,,Leasehold,,690000.0,2018-10-15,
517,"Flat 80 Cavatina Point, 3 Dancers Way, London, SE8 3FG",Non-Newbuild,,Flat,,,Leasehold,,550000.0,2018-10-15,
518,"Flat 10 Burrow House Stockwell Park Road, London, SW9 0UY",Non-Newbuild,,Flat,,,Leasehold,,440000.0,2018-10-15,
519,"24 Granville Square, London, SE15 6DU",Non-Newbuild,highway,Flat,0.41000000000000003,51.52764885,Leasehold,-0.113523913978645,317000.0,2018-10-15,residential
520,"Flat 2 170a Wandsworth Road, London, SW8 2LA",Non-Newbuild,,,,,Freehold,,10000.0,2018-10-12,
521,"Flat 21 Shepherd Court, 2 Annabel Close, London, E14 6DP",Non-Newbuild,,Flat,,,Leasehold,,390000.0,2018-10-12,
522,"Flat 54 Silbury House Sydenham Hill, London, SE26 6TU",Non-Newbuild,,Flat,,,Leasehold,,325000.0,2018-10-12,
523,"Flat 53 Arrandene Apartments Silverworks Close, London, NW9 0FA",Newbuild,,Flat,,,Leasehold,,452800.0,2018-10-12,
524,"Flat 2 Silverton Lodge, 118 Church Road, London, SE19 2UE",Non-Newbuild,,Flat,,,Leasehold,,95000.0,2018-10-12,
525,"11 Broads Foundry Trumpers Way, London, W7 2QP",Non-Newbuild,,,,,Leasehold,,200000.0,2018-10-12,
526,"Aston Webb Building, 115 - 121 Tooley Street, London, SE1 2HZ",Non-Newbuild,,,,,Freehold,,98000.0,2018-10-12,
527,"Flat 1 53 Eaton Rise, London, W5 2HE",Non-Newbuild,,Flat,,,Leasehold,,349500.0,2018-10-12,
528,"Garage 4 Queensborough Court North Circular Road, London, N3 3JP",Non-Newbuild,,,,,Leasehold,,19000.0,2018-10-12,
529,"Flat 3 Palmerstone Court, 2 Rosebery Place, London, NW7 2FA",Non-Newbuild,,Flat,,,Leasehold,,410000.0,2018-10-12,
530,"4 Grove Avenue, London, N3 1QP",Non-Newbuild,place,Semi Detached,0.32100000000000006,42.97138745,Freehold,-81.247924925,730000.0,2018-10-12,house
531,"49 Alders Close, London, E11 3RZ",Non-Newbuild,highway,Flat,0.61,51.5637662,Leasehold,0.0272999,215000.0,2018-10-12,residential
532,"43 Woodbury Street, London, SW17 9RP",Non-Newbuild,highway,Flat,0.51,51.4254373,Leasehold,-0.1688472,550000.0,2018-10-12,residential
533,"Bevan Mews Percy Road, London, W12 9QL",Non-Newbuild,,,,,Freehold,,25000.0,2018-10-12,
534,"Flat 2 Parkdale Bounds Green Road, London, N11 2HB",Non-Newbuild,,Flat,,,Leasehold,,150000.0,2018-10-12,
535,"68a Cobden Road, London, E11 3PE",Non-Newbuild,,,,,Freehold,,350000.0,2018-10-12,
536,"40a Broomsleigh Street, London, NW6 1QH",Non-Newbuild,highway,Flat,0.51,51.5515458,Leasehold,-0.199093,314544.0,2018-10-12,residential
537,"73a Bedford Gardens, London, W8 7EF",Non-Newbuild,highway,,0.51,51.5065005,Leasehold,-0.1945289,16100.0,2018-10-12,residential
538,"26 Perth Road, London, E13 9DS",Non-Newbuild,,Terraced,,,Freehold,,350000.0,2018-10-12,
539,"21 Lynwood Close, London, E18 1DP",Non-Newbuild,,Flat,,,Leasehold,,225000.0,2018-10-12,
540,"70a Stapleton Road, London, SW17 8AU",Non-Newbuild,highway,Flat,0.61,51.434541,Leasehold,-0.1583206,572000.0,2018-10-12,residential
541,"Flat 3 Alder Court Bream Close, London, N17 9BS",Non-Newbuild,,Flat,,,Leasehold,,250000.0,2018-10-12,
542,"101 Worple Road, London, SW20 8HB",Non-Newbuild,highway,,0.51,51.4127366,Freehold,-0.2233963,202463.0,2018-10-12,secondary
543,"The Peterborough Arms, 65 New Kings Road, London, SW6 4SE",Non-Newbuild,,,,,Freehold,,5619400.0,2018-10-12,
544,"137 Merton Hall Road, London, SW19 3PY",Non-Newbuild,highway,,0.6199999999999999,51.415575,Freehold,-0.2134377,42000.0,2018-10-12,residential
545,"69 Cambridge Street, London, SW1V 4PS",Non-Newbuild,highway,,0.51,51.4893929,Freehold,-0.1421726,5000.0,2018-10-12,residential
546,"Flat 10 Central House, 32 - 66 High Street, London, E15 2NS",Non-Newbuild,,Flat,,,Leasehold,,338000.0,2018-10-12,
547,"Flat 36 Sidlaw House Portland Avenue, London, N16 6HH",Non-Newbuild,,Flat,,,Leasehold,,435000.0,2018-10-12,
548,"308 Edgware Road, London, W2 1DY",Non-Newbuild,highway,,0.61,51.52018,Freehold,-0.1703352,2900000.0,2018-10-12,trunk
549,"2 Glenfield Road, London, W13 9JZ",Non-Newbuild,building,,0.621,51.5048632,Freehold,-0.317772297924194,10725.0,2018-10-12,yes
550,"19a Homestead Road, London, SW6 7DB",Non-Newbuild,place,Flat,0.30100000000000005,41.4550688031375,Leasehold,-71.949181503483,405000.0,2018-10-12,house
551,"383a Acton Lane, London, W3 8NR",Non-Newbuild,highway,Flat,0.62,51.5051444,Leasehold,-0.2658743,525000.0,2018-10-12,uncategoryified
552,"Flat 10 Saxony Court, 32a Geldeston Road, London, E5 8RQ",Non-Newbuild,,Flat,,,Leasehold,,247500.0,2018-10-12,
553,"26 Tavistock Road, London, E7 9EL",Non-Newbuild,highway,Terraced,0.61,51.5543064,Freehold,0.0117843,530000.0,2018-10-12,residential
554,"Flat 55 Mallard Point, 6 Rainhill Way, London, E3 3FQ",Non-Newbuild,,Flat,,,Leasehold,,435000.0,2018-10-12,
555,"2 Vantage Place, London, W8 6AQ",Non-Newbuild,highway,Terraced,0.41000000000000003,51.4576802,Freehold,-0.4115214,3920000.0,2018-10-12,residential
556,"33 Friars Road, London, E6 1LJ",Non-Newbuild,highway,Terraced,0.41000000000000003,51.5335769,Freehold,0.0450549,380000.0,2018-10-12,residential
557,"45 Woodbrook Road, London, SE2 0PE",Non-Newbuild,highway,Terraced,0.51,51.4780418,Freehold,0.1080325,410000.0,2018-10-12,residential
558,"Flat 1 Carteret House White City Estate, London, W12 7QA",Non-Newbuild,,Flat,,,Leasehold,,342000.0,2018-10-12,
559,"Flat 6 Puteaux House Mace Street, London, E2 0RF",Non-Newbuild,,Flat,,,Leasehold,,287500.0,2018-10-12,
560,"5 Dordrecht Road, London, W3 7TE",Non-Newbuild,highway,Terraced,0.51,51.5055886,Freehold,-0.2517263,960000.0,2018-10-12,residential
561,"6 Woodsford Square, London, W14 8DP",Non-Newbuild,highway,Terraced,0.61,51.5034915,Freehold,-0.2095826,2950000.0,2018-10-12,residential
562,"100 Pigott Street, London, E14 7DW",Non-Newbuild,,Flat,,,Leasehold,,380000.0,2018-10-12,
563,"Second Floor Flat 43 Comeragh Road, London, W14 9HT",Non-Newbuild,,Flat,,,Leasehold,,530000.0,2018-10-12,
564,"Flat 85 Marner Point, 1 Jefferson Plaza, London, E3 3QB",Non-Newbuild,,Flat,,,Leasehold,,287500.0,2018-10-12,
565,"103a Deansway, London, N9 9TY",Non-Newbuild,highway,Flat,0.42000000000000004,51.6245648,Leasehold,-0.0810595,245000.0,2018-10-12,residential
566,"Flat 4 52 Queens Gate Gardens, London, SW7 5NF",Non-Newbuild,,Flat,,,Leasehold,,1850000.0,2018-10-12,
567,"20 Pitshanger Lane, Ealing, London, W5 1QY",Non-Newbuild,highway,Flat,0.748306128247672,51.5268614,Leasehold,-0.3076834,480000.0,2018-10-12,tertiary
568,"3 Abbotts Crescent, London, E4 9SA",Non-Newbuild,building,Terraced,0.42099999999999993,51.65942055,Freehold,-0.0930709682917888,550000.0,2018-10-12,yes
569,"Flat 7 1 Bassett Road, London, W10 6LA",Non-Newbuild,highway,Flat,0.61,51.5184176,Leasehold,-0.2162893,435000.0,2018-10-12,residential
570,"Second Floor Flat 53 Castletown Road, London, W14 9HG",Non-Newbuild,,Flat,,,Leasehold,,925000.0,2018-10-12,
571,"5 Silverdene Moss Hall Grove, London, N12 8PQ",Non-Newbuild,,Flat,,,Leasehold,,450000.0,2018-10-12,
572,"39 Reeves Road, London, E3 3PP",Non-Newbuild,place,Terraced,0.621,51.5234496,Freehold,-0.0154115333333333,540000.0,2018-10-12,house
573,"11 Ravensbourne Road, London, SE6 4UU",Non-Newbuild,building,Terraced,0.621,51.44284785,Freehold,-0.0348548732570804,525000.0,2018-10-12,yes
574,"Flat 402 Astell House, 35 Lyell Street, London, E14 0SU",Newbuild,,Flat,,,Leasehold,,483060.0,2018-10-12,
575,"40 Bridgeman House, 1 Radnor Terrace, London, W14 8AZ",Non-Newbuild,,Flat,,,Leasehold,,1650000.0,2018-10-12,
576,"Flat 14 68 George Downing Estate, London, N16 6BW",Non-Newbuild,,Flat,,,Leasehold,,325014.0,2018-10-12,
577,"33 Kinnaird Avenue, London, W4 3SH",Non-Newbuild,highway,Semi Detached,0.51,51.4813976,Freehold,-0.2708796,1610000.0,2018-10-12,residential
578,"19a Collingbourne Road, London, W12 0JG",Non-Newbuild,highway,Flat,0.51,51.508748,Leasehold,-0.2351286,700000.0,2018-10-12,residential
579,"Flat 38 1 Queensland Road, London, N7 7BY",Non-Newbuild,,Flat,,,Leasehold,,232000.0,2018-10-12,
580,"77a Harold Road, Leytonstone, London, E11 4QX",Non-Newbuild,,Flat,,,Leasehold,,410000.0,2018-10-12,
581,"148 Sutton Court Road, London, W4 3HT",Non-Newbuild,highway,Detached,0.71,51.4847285,Freehold,-0.2690584,2250000.0,2018-10-12,tertiary
582,"73 Horder Road, Fulham, London, SW6 5ED",Non-Newbuild,highway,Terraced,0.71,51.4753069,Freehold,-0.2105554,915000.0,2018-10-12,residential
583,"Flat 23 46 Palmers Road, London, E2 0TD",Non-Newbuild,,Flat,,,Leasehold,,92500.0,2018-10-12,
584,"109 Rivulet Road, London, N17 7JH",Non-Newbuild,highway,Terraced,0.51,51.6040155,Freehold,-0.091147,246000.0,2018-10-12,residential
585,"53 Gaskarth Road, London, SW12 9NN",Non-Newbuild,highway,Terraced,0.51,51.4506859,Freehold,-0.1437308,900000.0,2018-10-12,residential
586,"Flat 801 Craig Tower, 1 Aqua Vista Square, London, E3 4EF",Non-Newbuild,,Flat,,,Leasehold,,325000.0,2018-10-12,
587,"7 St Margarets Avenue, London, N15 3DH",Non-Newbuild,highway,Flat,0.61,51.5870093,Leasehold,-0.0994158,413246.0,2018-10-12,residential
588,"4 Drake Road, London, SE4 1QH",Non-Newbuild,highway,Semi Detached,0.71,51.4644867,Freehold,-0.0269826,1550000.0,2018-10-12,residential
589,"Basement Flat 36 Mildmay Grove South, London, N1 4RL",Non-Newbuild,,Flat,,,Leasehold,,530000.0,2018-10-12,
590,"Flat 3 62 Fairlawn Grove, London, W4 5EH",Non-Newbuild,highway,Flat,0.51,51.4957468,Leasehold,-0.2674093,460000.0,2018-10-12,residential
591,"93 Elswick Road, London, SE13 7SR",Non-Newbuild,highway,Terraced,0.585,51.4670015,Freehold,-0.0190282,485000.0,2018-10-12,footway
592,"Flat 6 Beckett Court, 7 Burdett Road, London, E3 4TU",Non-Newbuild,,Flat,,,Leasehold,,255000.0,2018-10-12,
593,"111a The Avenue, London, E4 9RX",Non-Newbuild,landuse,Flat,0.51,51.6034693,Leasehold,0.0734667420532072,398000.0,2018-10-12,residential
594,"39 Tankerville Road, London, SW16 5LW",Non-Newbuild,highway,Semi Detached,0.51,51.4168019,Freehold,-0.1310272,700000.0,2018-10-12,residential
595,"8 Beaufort Road, London, W5 3EA",Non-Newbuild,highway,Detached,0.61,51.5221962,Freehold,-0.2878011,1350000.0,2018-10-12,residential
596,"Flat 10 Blomfield Mansions, 6 Marwood Square, London, N10 3EY",Newbuild,,Flat,,,Leasehold,,789600.0,2018-10-12,
597,"143 Cotton Avenue, London, W3 6YG",Non-Newbuild,highway,Flat,0.51,51.5174448,Leasehold,-0.2595877,378999.0,2018-10-12,residential
598,"3 Chelsea Crescent, London, SW10 0XB",Non-Newbuild,place,Flat,0.830077877750203,51.4875417,Leasehold,-0.1682205,1535000.0,2018-10-12,suburb
599,"16 Buckrell Road, London, E4 6JN",Non-Newbuild,highway,Semi Detached,0.5199999999999999,51.6235792,Freehold,0.0037992,350000.0,2018-10-12,residential
600,"2 Dover Road, London, N9 0LD",Non-Newbuild,place,Semi Detached,0.5209999999999999,51.6260477,Freehold,-0.0470144,465000.0,2018-10-12,house
601,"9 Cavendish Drive, London, E11 1DN",Non-Newbuild,highway,Terraced,0.61,51.5679842,Freehold,-0.0010647,780000.0,2018-10-12,residential
602,"Second & Third Floor Flat 103b Graham Road, London, E8 1PB",Non-Newbuild,highway,Flat,0.21000000000000002,-28.7060613,Leasehold,24.7857971,500000.0,2018-10-12,residential
603,"17 Brookfield Avenue, London, W5 1LA",Non-Newbuild,place,Semi Detached,0.42099999999999993,51.58494610625,Freehold,-0.0065496,840000.0,2018-10-12,house
604,"14 Onslow Gardens, London, N10 3JU",Non-Newbuild,highway,Terraced,0.61,51.584117,Freehold,-0.1460143,2000000.0,2018-10-12,residential
605,"First Floor Flat 7 Bishops Avenue, London, E13 0RB",Non-Newbuild,,Flat,,,Leasehold,,197370.0,2018-10-12,
606,"1 Oaklodge Way, London, NW7 2JF",Non-Newbuild,highway,Detached,0.585,51.6134592,Freehold,-0.2446814,1800000.0,2018-10-12,service
607,"Flat 3 35 Sydney Street, London, SW3 6PU",Non-Newbuild,,Flat,,,Leasehold,,1030000.0,2018-10-12,
608,"Flat 5 4 Barchester Street, London, E14 6RF",Non-Newbuild,highway,Flat,0.61,51.5175343,Leasehold,-0.016773,365000.0,2018-10-12,uncategoryified
609,"88 Uphill Road, London, NW7 4QE",Non-Newbuild,highway,Detached,0.51,51.619633,Freehold,-0.2479377,4400000.0,2018-10-12,residential
610,"16a Jessamine Road, London, W7 3SQ",Non-Newbuild,highway,Flat,0.61,51.5079732,Leasehold,-0.3376929,432000.0,2018-10-12,residential
611,"129 Colegrave Road, London, E15 1EA",Non-Newbuild,building,Terraced,0.5209999999999999,51.5516365,Freehold,0.000636405933308564,445000.0,2018-10-12,yes
612,"Flat 39 Sheridan Buildings Martlett Court, London, WC2B 5SD",Non-Newbuild,,Flat,,,Leasehold,,556500.0,2018-10-12,
613,"Flat 108 Blenheim Court Marlborough Road, London, N19 4HU",Non-Newbuild,,Flat,,,Leasehold,,455000.0,2018-10-12,
614,"Flat 1 22 - 26 Camden Passage, London, N1 8ED",Non-Newbuild,,Flat,,,Leasehold,,1565000.0,2018-10-12,
615,"Flat 41 Bakers Field Crayford Road, London, N7 0LT",Non-Newbuild,,Flat,,,Leasehold,,530000.0,2018-10-12,
616,"Flat 127 New Atlas Wharf, 3 Arnhem Place, London, E14 3ST",Non-Newbuild,,Flat,,,Leasehold,,636000.0,2018-10-12,
617,"Chilterns Marsh Lane, London, NW7 4NT",Non-Newbuild,,Detached,,,Freehold,,1925000.0,2018-10-12,
618,"18 Basing Way, London, N3 3BY",Non-Newbuild,highway,Flat,0.51,51.5934368,Leasehold,-0.1887549,298750.0,2018-10-12,residential
619,"Montal Bury Road, London, E4 7QL",Non-Newbuild,,Detached,,,Freehold,,775000.0,2018-10-12,
620,"10 Bickenhall Mansions Bickenhall Street, London, W1U 6BP",Non-Newbuild,,Flat,,,Leasehold,,2600000.0,2018-10-12,
621,"19 St Andrews Road, London, W7 2NX",Non-Newbuild,place,Terraced,0.5209999999999999,51.5931585783784,Freehold,-0.0389254864864865,475000.0,2018-10-12,house
622,"75 Westminster Road, London, N9 8RD",Non-Newbuild,place,Terraced,0.42099999999999993,51.3767671,Freehold,-0.1809546,387000.0,2018-10-12,house
623,"117 Dukes Avenue, London, N10 2QD",Non-Newbuild,highway,Terraced,0.61,51.5946825,Freehold,-0.1334225,1170000.0,2018-10-12,residential
624,"13 Cheddington Road, London, N18 1LT",Non-Newbuild,highway,Terraced,0.51,51.6199662,Freehold,-0.077489,355000.0,2018-10-12,residential
625,"Flat 17 West Point, 3 Grenade Street, London, E14 8HX",Non-Newbuild,,Flat,,,Leasehold,,551000.0,2018-10-12,
626,"20 Grenville Place, London, NW7 3SF",Non-Newbuild,highway,Terraced,0.61,51.6153863,Freehold,-0.2585155,490000.0,2018-10-12,residential
627,"193 Cann Hall Road, London, E11 3NJ",Non-Newbuild,,Terraced,,,Freehold,,440000.0,2018-10-12,
628,"Flat 18 Holland House, 42 Newington Green, London, N16 9PQ",Non-Newbuild,,Flat,,,Leasehold,,580000.0,2018-10-12,
629,"First Floor Flat 38 Brondesbury Villas, London, NW6 6AB",Non-Newbuild,,Flat,,,Leasehold,,571000.0,2018-10-12,
630,"215 Wynford Road, London, N1 9TZ",Non-Newbuild,highway,Flat,0.51,51.5341046,Leasehold,-0.1147163,410000.0,2018-10-12,residential
631,"49 Orford Road, London, E17 9NJ",Non-Newbuild,building,Terraced,0.5309999999999999,51.58244895,Freehold,-0.0126386115110763,832000.0,2018-10-12,yes
632,"64 Richmond Road, Leytonstone, London, E11 4BU",Non-Newbuild,,Terraced,,,Freehold,,740000.0,2018-10-12,
633,"Flat 18 Dorchester Court Buckingham Road, South Woodford, London, E18 2NG",Non-Newbuild,,Flat,,,Leasehold,,365000.0,2018-10-12,
634,"Flat 26 Milstead House Pembury Road, London, E5 8JT",Non-Newbuild,,Flat,,,Leasehold,,370000.0,2018-10-12,
635,"21a Woodford Road, London, E18 2EL",Non-Newbuild,place,Terraced,0.621,51.5863247,Freehold,0.0215556,787000.0,2018-10-12,house
636,"8 Farnell Mews, London, SW5 9DL",Non-Newbuild,highway,Terraced,0.51,51.4899009,Freehold,-0.1919605,1075000.0,2018-10-12,residential
637,"1a Gayhurst Road, London, E8 3EH",Non-Newbuild,highway,Terraced,0.61,51.5424574,Freehold,-0.0656231,1040000.0,2018-10-12,residential
638,"145 Colegrave Road, London, E15 1EA",Non-Newbuild,building,Terraced,0.5209999999999999,51.55169965,Freehold,0.00124163030003218,520000.0,2018-10-12,yes
639,"51 Rancliffe Road, London, E6 3HW",Non-Newbuild,highway,Terraced,0.51,51.5282075,Freehold,0.0521405,602000.0,2018-10-12,secondary
640,"Flat 8 Gordon Lodge Queen Elizabeths Walk, London, N16 5UY",Non-Newbuild,,Flat,,,Leasehold,,458250.0,2018-10-12,
641,"180 Church Road, London, E12 6HL",Non-Newbuild,highway,Terraced,0.5199999999999999,51.5485272,Freehold,0.0586018,330000.0,2018-10-12,secondary
642,"66f Blomfield Road, London, W9 2PA",Non-Newbuild,highway,Flat,0.5199999999999999,51.5220012,Leasehold,-0.1855992,533000.0,2018-10-12,tertiary
643,"52 Orwell Road, London, E13 9DH",Non-Newbuild,highway,Terraced,0.5199999999999999,51.5330003,Freehold,0.0345235,450800.0,2018-10-12,residential
644,"Magnolia Cottage Mott Street, London, E4 7RW",Non-Newbuild,,Detached,,,Freehold,,470000.0,2018-10-12,
645,"Flat 4 Parkview Court, 38 Fulham High Street, London, SW6 3LP",Non-Newbuild,,Flat,,,Leasehold,,555000.0,2018-10-12,
646,"Flat 29 Bulow Court Pearscroft Road, London, SW6 2BP",Non-Newbuild,,Flat,,,Leasehold,,454000.0,2018-10-12,
647,"314 Lonsdale Avenue, London, E6 3PN",Non-Newbuild,highway,Terraced,0.51,51.5235092,Freehold,0.0408441,375000.0,2018-10-12,tertiary
648,"115 Maynard Road, London, E17 9JE",Non-Newbuild,place,Semi Detached,0.5309999999999999,51.5818553583333,Freehold,-0.00458809166666667,700000.0,2018-10-12,house
649,"50 Bunning Way, London, N7 9UP",Non-Newbuild,highway,Flat,0.51,51.5427683,Leasehold,-0.119416,350000.0,2018-10-12,residential
650,"32 Stuart Avenue, London, NW9 7AT",Non-Newbuild,place,Semi Detached,0.411,41.3102986014281,Freehold,-72.0989710271718,482500.0,2018-10-12,house
651,"40 Norman Court, 395 Nether Street, London, N3 1QQ",Non-Newbuild,,Flat,,,Leasehold,,420000.0,2018-10-12,
652,"55 Bradbourne Street, London, SW6 3TF",Non-Newbuild,highway,Terraced,0.51,51.472017,Freehold,-0.1970857,3400000.0,2018-10-12,residential
653,"Flat 25 10 The Grange, London, SE1 3AG",Non-Newbuild,,Flat,,,Leasehold,,433000.0,2018-10-12,
654,"13c Leigh Road, London, N5 1ST",Non-Newbuild,highway,Terraced,0.61,51.553432,Freehold,-0.1002485,730000.0,2018-10-12,residential
655,"45 Lucas Street, London, SE8 4QH",Non-Newbuild,highway,Terraced,0.51,51.4715238,Freehold,-0.0277646,650000.0,2018-10-12,residential
656,"34a Astonville Street, London, SW18 5AL",Non-Newbuild,highway,Flat,0.51,51.4426505,Leasehold,-0.1992311,582500.0,2018-10-12,residential
657,"42 Sturmer Way, London, N7 9TB",Non-Newbuild,highway,Flat,0.585,51.5525528,Leasehold,-0.1176672,350000.0,2018-10-12,service
658,"2 Kingsmead Road, Tulse Hill, London, SW2 3JB",Non-Newbuild,highway,Detached,0.61,51.4376026,Freehold,-0.1121731,1800000.0,2018-10-12,residential
659,"97 Nelgarde Road, London, SE6 4TB",Non-Newbuild,highway,Flat,0.51,51.4462115,Leasehold,-0.0233486,325000.0,2018-10-12,residential
660,"Flat 5 26 Inverness Terrace, London, W2 3JA",Non-Newbuild,highway,Flat,0.51,51.5111307,Leasehold,-0.1860924,720000.0,2018-10-12,secondary
661,"31 Bramford Road, London, SW18 1AP",Non-Newbuild,highway,Terraced,0.61,51.460789,Freehold,-0.1851627,975000.0,2018-10-12,residential
662,"12a Ballina Street, London, SE23 1DR",Non-Newbuild,highway,Flat,0.51,51.4490162,Leasehold,-0.0441511,440000.0,2018-10-12,residential
663,"15 Queen Annes Grove, London, W5 3XP",Non-Newbuild,highway,Semi Detached,0.61,51.5044896,Freehold,-0.2981405,975000.0,2018-10-12,residential
664,"63 Broxash Road, London, SW11 6AD",Non-Newbuild,highway,Terraced,0.5199999999999999,51.454597,Freehold,-0.1563879,1400000.0,2018-10-12,residential
665,"Flat 2 77 Rosendale Road, West Dulwich, London, SE21 8EZ",Non-Newbuild,,Flat,,,Leasehold,,480000.0,2018-10-12,
666,"Flat 357 Russell Court Woburn Place, London, WC1H 0NH",Non-Newbuild,,Flat,,,Leasehold,,350000.0,2018-10-12,
667,"10 South End Row, London, W8 5BZ",Non-Newbuild,highway,Terraced,0.71,51.4987463,Freehold,-0.1890787,2345000.0,2018-10-12,residential
668,"Flat 9 Tower Court Foxberry Road, London, SE4 2SY",Non-Newbuild,,Flat,,,Leasehold,,162500.0,2018-10-12,
669,"Flat 3 14 Steeles Road, London, NW3 4SE",Non-Newbuild,highway,Flat,0.61,51.5455421,Leasehold,-0.1595975,1200000.0,2018-10-12,residential
670,"19 Sladedale Road, London, SE18 1PY",Non-Newbuild,highway,Terraced,0.51,51.483097,Freehold,0.0900795,355000.0,2018-10-12,residential
671,"Flat 33 Knox Court Studley Road, London, SW4 6SA",Non-Newbuild,,Flat,,,Leasehold,,422500.0,2018-10-12,
672,"50 Heathfield Road, London, W3 8EJ",Non-Newbuild,place,Semi Detached,0.42099999999999993,51.3642371777778,Freehold,-0.0970041555555556,1150000.0,2018-10-12,house
673,"101 Glenfarg Road, London, SE6 1XW",Non-Newbuild,highway,Terraced,0.61,51.4428115,Freehold,-0.0093465,431000.0,2018-10-12,residential
674,"Flat 50 Renton Close Brixton Hill, London, SW2 1EZ",Non-Newbuild,,Flat,,,Leasehold,,450000.0,2018-10-12,
675,"Ground Floor Flat 122 Hanover Road, London, NW10 3DP",Non-Newbuild,,Flat,,,Leasehold,,412500.0,2018-10-12,
676,"20 Castlewood Drive, London, SE9 1ND",Non-Newbuild,highway,Terraced,0.51,51.4638341,Freehold,0.0565915,415000.0,2018-10-12,tertiary
677,"46 St Oswalds Road, London, SW16 3SB",Non-Newbuild,highway,Semi Detached,0.61,51.4132474,Freehold,-0.1078344,665000.0,2018-10-12,residential
678,"Flat 1 3 Carlingford Road, London, NW3 1RY",Non-Newbuild,highway,Flat,0.71,51.556339,Leasehold,-0.1723049,1400087.0,2018-10-12,residential
679,"26 Winsford Terrace, London, N18 1BS",Non-Newbuild,highway,Terraced,0.31000000000000005,51.4338634,Freehold,-0.0301488,412000.0,2018-10-12,residential
680,"22 Parkwood Road, London, SW19 7AQ",Non-Newbuild,building,Semi Detached,0.5209999999999999,51.4247919,Freehold,-0.20428014190925,1485000.0,2018-10-12,yes
681,"Flat 3 2 Erskine Road, London, NW3 3AJ",Non-Newbuild,highway,Flat,0.71,51.5418056,Leasehold,-0.1571735,365000.0,2018-10-12,residential
682,"42 Salisbury Road, London, W13 9TX",Non-Newbuild,building,Terraced,0.621,51.50383275,Freehold,-0.320508582784525,708000.0,2018-10-12,yes
683,"Flat 62 Copeland House Garratt Lane, London, SW17 0NG",Non-Newbuild,,Flat,,,Leasehold,,200000.0,2018-10-12,
684,"Flat 93 Rubicon Court, 3 York Way, London, N1C 4AF",Non-Newbuild,,Flat,,,Leasehold,,520000.0,2018-10-12,
685,"Flat 3 Ivor Court Gloucester Place, London, NW1 6BJ",Non-Newbuild,,Flat,,,Leasehold,,291000.0,2018-10-12,
686,"Flat 29 Arlington Lodge Brixton Hill, London, SW2 1RE",Non-Newbuild,,Flat,,,Leasehold,,425000.0,2018-10-12,
687,"Flat 3 12 Macroom Road, London, W9 3HY",Non-Newbuild,,Flat,,,Leasehold,,260000.0,2018-10-12,
688,"51 Burlington Close, London, W9 3LY",Non-Newbuild,landuse,Flat,0.51,51.5253691,Leasehold,-0.198941566426886,615000.0,2018-10-12,residential
689,"49 Colomb Street, London, SE10 9HA",Non-Newbuild,highway,Terraced,0.61,51.4843903,Freehold,0.007284,675000.0,2018-10-12,residential
690,"93b Judd Street, London, WC1H 9NE",Non-Newbuild,place,Flat,0.411,51.5275543,Leasehold,-0.1250036,537500.0,2018-10-12,house
691,"Flat 14 The Roof Gardens, 41 - 53 Goswell Road, London, EC1V 7EH",Non-Newbuild,,Flat,,,Leasehold,,1255000.0,2018-10-12,
692,"43 Braidwood Road, London, SE6 1QU",Non-Newbuild,highway,Terraced,0.61,51.4408473,Freehold,-0.0088869,540000.0,2018-10-12,residential
693,"Top Floor Flat 35 Maygrove Road, London, NW6 2EE",Non-Newbuild,,Flat,,,Leasehold,,695000.0,2018-10-12,
694,"90 Brunswick Crescent, London, N11 1EB",Non-Newbuild,building,Terraced,0.5209999999999999,51.6233031,Freehold,-0.149751287371134,448000.0,2018-10-12,yes
695,"24 Parsons Green, London, SW6 4UH",Non-Newbuild,building,Terraced,0.5209999999999999,51.4731318,Freehold,-0.200837898469991,5000000.0,2018-10-12,yes
696,"41 Wakeman Road, London, NW10 5BJ",Non-Newbuild,building,Terraced,0.5209999999999999,51.53092925,Freehold,-0.218999024177684,965000.0,2018-10-12,yes
697,"21 Deansway, London, N9 9TX",Non-Newbuild,highway,Semi Detached,0.42000000000000004,51.6245648,Freehold,-0.0810595,435000.0,2018-10-12,residential
698,"43 Gladsmuir Road, London, N19 3JY",Non-Newbuild,highway,Terraced,0.51,51.5704139,Freehold,-0.1339375,1235000.0,2018-10-12,residential
699,"Flat C 773 Wandsworth Road, London, SW8 3JG",Non-Newbuild,,Flat,,,Leasehold,,365000.0,2018-10-12,
700,"117 Westcombe Hill, London, SE3 7DX",Non-Newbuild,highway,Flat,0.61,51.4837212,Leasehold,0.0198678,408000.0,2018-10-12,tertiary
701,"221 George Lane, London, SE13 6RY",Non-Newbuild,highway,Terraced,0.61,51.4497255,Freehold,-0.0079625,680000.0,2018-10-12,residential
702,"49 Tooting Bec Road, London, SW17 8BP",Non-Newbuild,place,Flat,0.6309999999999999,51.4349266333333,Leasehold,-0.1566557,700000.0,2018-10-12,house
703,"35 London Road, London, SE23 3TY",Non-Newbuild,amenity,Terraced,0.431,51.4476718,Freehold,-0.3289195,520000.0,2018-10-12,fast_food
704,"12 Wingford Road, London, SW2 4DS",Non-Newbuild,highway,Flat,0.51,51.4502033,Leasehold,-0.1273944,389000.0,2018-10-12,uncategoryified
705,"1 Christian Fields, London, SW16 3JY",Non-Newbuild,highway,Semi Detached,0.61,51.4176746,Freehold,-0.1104489,305000.0,2018-10-12,residential
706,"Flat 34a Felbridge House East Dulwich Estate, London, SE22 8BY",Non-Newbuild,,Flat,,,Leasehold,,317500.0,2018-10-12,
707,"429 Cannon Hill Lane, London, SW20 9HH",Non-Newbuild,highway,Terraced,0.61,51.4073885,Freehold,-0.2114275,695000.0,2018-10-12,residential
708,"Flat 27 Garda House, 5 Cable Walk, London, SE10 0TN",Non-Newbuild,,Flat,,,Leasehold,,455000.0,2018-10-12,
709,"73 Amity Grove, London, SW20 0LQ",Non-Newbuild,highway,Semi Detached,0.5199999999999999,51.4098287,Freehold,-0.2316904,1170000.0,2018-10-12,residential
710,"89b Erlanger Road, London, SE14 5TQ",Non-Newbuild,highway,Flat,0.51,51.470251,Leasehold,-0.0463563,590000.0,2018-10-12,residential
711,"Flat 2 Wilberforce House Clapham Common North Side, London, SW4 0RG",Non-Newbuild,,Flat,,,Leasehold,,495000.0,2018-10-12,
712,"Flat 1 8 Tremadoc Road, Clapham, London, SW4 7NE",Non-Newbuild,highway,Flat,0.61,51.4621691,Leasehold,-0.1309486,476000.0,2018-10-12,residential
713,"10 Oxford Avenue, London, SW20 8LT",Non-Newbuild,highway,Flat,0.41000000000000003,51.4820899,Leasehold,-0.42377264823602,443000.0,2018-10-12,residential
714,"28a Fernlea Road, London, SW12 9RN",Non-Newbuild,place,Flat,0.411,51.4425587321429,Leasehold,-0.147999739285714,605000.0,2018-10-12,house
715,"49 West Park, Mottingham, London, SE9 4RZ",Non-Newbuild,highway,Detached,0.6199999999999999,51.4394054,Freehold,0.0485497,1385000.0,2018-10-12,tertiary
716,"51 Combemartin Road, London, SW18 5PP",Non-Newbuild,highway,Detached,0.51,51.4465795,Freehold,-0.2102982,1615000.0,2018-10-12,residential
717,"6 Friars Mews, London, SE9 1HR",Non-Newbuild,highway,Terraced,0.61,51.4522,Freehold,0.059931,340000.0,2018-10-12,residential
718,"Flat 52 Bassett House, 1 Durnsford Road, London, SW19 8EA",Non-Newbuild,,Flat,,,Leasehold,,403000.0,2018-10-12,
719,"29 The Woodlands, London, SE19 3EQ",Non-Newbuild,highway,Flat,0.51,51.4158711,Leasehold,-0.097957,97000.0,2018-10-12,residential
720,"25a Worbeck Road, London, SE20 7SW",Non-Newbuild,highway,Flat,0.61,51.4061182,Leasehold,-0.0590744,400000.0,2018-10-12,residential
721,"Lower Ground Floor  Flat 126 Norwood Road, London, SE24 9AY",Non-Newbuild,,Flat,,,Leasehold,,386000.0,2018-10-12,
722,"41 Hitherfield Road, London, SW16 2LW",Non-Newbuild,highway,Terraced,0.51,51.4361124,Freehold,-0.116479,900000.0,2018-10-12,residential
723,"138 Choumert Road, London, SE15 4AA",Non-Newbuild,building,Flat,0.5209999999999999,51.46739695,Leasehold,-0.0740809737382383,499999.0,2018-10-12,yes
724,"21b Costa Street, London, SE15 4PE",Non-Newbuild,building,Semi Detached,0.5209999999999999,51.46678885,Freehold,-0.0699160500000015,727500.0,2018-10-12,yes
725,"20 Afghan Road, London, SW11 2QD",Non-Newbuild,highway,Terraced,0.51,51.4689775,Freehold,-0.1696863,1000000.0,2018-10-12,residential
726,"Flat 3 582 Streatham High Road, London, SW16 3QH",Non-Newbuild,,Flat,,,Leasehold,,225100.0,2018-10-12,
727,"92 Abercrombie Street, London, SW11 2JD",Non-Newbuild,highway,Terraced,0.51,51.4710218,Freehold,-0.165466,300000.0,2018-10-12,residential
728,"21 Elm Way, London, NW10 0NG",Non-Newbuild,highway,Semi Detached,0.51,51.5594502,Freehold,-0.2551992,580000.0,2018-10-12,residential
729,"13 Wydeville Manor Road, London, SE12 0ER",Non-Newbuild,highway,Flat,0.61,51.4292054,Leasehold,0.0223691,235000.0,2018-10-12,residential
730,"18 Pickets Street, London, SW12 8QB",Non-Newbuild,highway,Terraced,0.5199999999999999,51.4493316,Freehold,-0.1522904,1128000.0,2018-10-12,residential
731,"91 Grand Drive, Raynes Park, London, SW20 9DW",Non-Newbuild,highway,Detached,0.8099999999999999,51.4036624,Freehold,-0.2292348,780000.0,2018-10-12,secondary
732,"Flat 56 Kathleen Godfree Court, 80 Queens Road, London, SW19 8LB",Non-Newbuild,,Flat,,,Leasehold,,249950.0,2018-10-12,
733,"Flat 2 146 - 148 Landor Road, London, SW9 9JA",Non-Newbuild,,Flat,,,Leasehold,,278000.0,2018-10-12,
734,"43 Churchmore Road, London, SW16 5UY",Non-Newbuild,highway,Terraced,0.51,51.4135712,Freehold,-0.138401,503000.0,2018-10-12,residential
735,"5 Traemore Court, 81 Knollys Road, London, SW16 2JW",Non-Newbuild,,Flat,,,Leasehold,,350000.0,2018-10-12,
736,"76 Eltham Hill, London, SE9 5EF",Non-Newbuild,highway,Semi Detached,0.51,51.4528467,Freehold,0.0371577,375000.0,2018-10-12,primary
737,"16 Culmstock Road, London, SW11 6LX",Non-Newbuild,highway,Terraced,0.5199999999999999,51.4568767,Freehold,-0.1574715,1650000.0,2018-10-12,residential
738,"Flat 2 Carew Court, 3 Samuel Close, London, SE14 5RP",Non-Newbuild,,Flat,,,Leasehold,,218000.0,2018-10-12,
739,"88 Greyhound Lane, London, SW16 5RW",Non-Newbuild,highway,Semi Detached,0.51,51.4199911,Freehold,-0.1316793,690000.0,2018-10-11,secondary
740,"Flat 19 Petersham House 29-37 Harrington Road, London, SW7 3HD",Non-Newbuild,,Flat,,,Leasehold,,1200000.0,2018-10-11,
741,"Flat 22 Petersham House 29-37 Harrington Road, London, SW7 3HD",Non-Newbuild,,Flat,,,Leasehold,,875000.0,2018-10-11,
742,"Flat 30 Petersham House 29-37 Harrington Road, London, SW7 3HD",Non-Newbuild,,Flat,,,Leasehold,,1300000.0,2018-10-11,
743,"43 Eardley Road, London, SW16 6DA",Non-Newbuild,highway,Semi Detached,0.51,51.4209137,Freehold,-0.1392709,1275000.0,2018-10-11,tertiary
744,"Flat A-d 423 Hornsey Road, London, N19 4DX",Non-Newbuild,,,,,Freehold,,75000.0,2018-10-11,
745,"Flat 72 Whitton, 89 King Henrys Road, London, NW3 3RE",Non-Newbuild,,Flat,,,Leasehold,,465000.0,2018-10-11,
746,"Flat 11a Albert Hall Mansions Kensington Gore, London, SW7 2AL",Non-Newbuild,,,,,Leasehold,,5530482.0,2018-10-11,
747,"159 Downsell Road, London, E15 2BS",Non-Newbuild,,,,,Freehold,,30000.0,2018-10-11,
748,"Unit A2 Gateway Tower Western Gateway, London, E16 1YL",Non-Newbuild,,,,,Leasehold,,315000.0,2018-10-11,
749,"97 Warwick Avenue, London, W9 2PP",Non-Newbuild,building,Terraced,0.5309999999999999,51.5244152,Freehold,-0.187468790513834,2200000.0,2018-10-11,yes
750,"17 Brook Mews North, London, W2 3BW",Non-Newbuild,highway,,0.61,51.5134621,Freehold,-0.178753,152500.0,2018-10-11,residential
751,"47 Raglan Road, London, E17 9EE",Non-Newbuild,building,Semi Detached,0.5309999999999999,51.58148765,Freehold,-0.000900483444558742,500000.0,2018-10-11,yes
752,"Flat 2 Sycamore Court, 228 Romford Road, Manor Park, London, E7 9HB",Non-Newbuild,,Flat,,,Leasehold,,292500.0,2018-10-11,
753,"Flat 6 45 Petherton Road, London, N5 2QX",Non-Newbuild,,Flat,,,Leasehold,,610000.0,2018-10-11,
754,"Flat 14 Abingdon Mansions Pater Street, London, W8 6AB",Non-Newbuild,,Flat,,,Leasehold,,636000.0,2018-10-11,
755,"48 Attlee Terrace, London, E17 3EG",Non-Newbuild,highway,Flat,0.31000000000000005,51.390979,Leasehold,-0.1035807,300000.0,2018-10-11,residential
756,"Flat 3 25 Pilgrims Lane, London, NW3 1SX",Non-Newbuild,highway,Flat,0.61,51.5557742,Leasehold,-0.1718855,475000.0,2018-10-11,residential
757,"Flat 40 Abingdon Mansions Pater Street, London, W8 6AB",Non-Newbuild,,Flat,,,Leasehold,,695000.0,2018-10-11,
758,"Garden Flat 29 Devonport Road, London, W12 8NZ",Non-Newbuild,,Flat,,,Leasehold,,645000.0,2018-10-11,
759,"164 Middleham Road, London, N18 2SF",Non-Newbuild,highway,Terraced,0.51,51.6091417,Freehold,-0.057705,325000.0,2018-10-11,residential
760,"Flat 37 Abingdon Mansions Pater Street, London, W8 6AB",Non-Newbuild,,Flat,,,Leasehold,,645000.0,2018-10-11,
761,"5 De Vere Cottages Canning Place, London, W8 5AA",Non-Newbuild,,Terraced,,,Freehold,,2850000.0,2018-10-11,
762,"Flat 98 Chiltern Court Baker Street, London, NW1 5TA",Non-Newbuild,,Flat,,,Leasehold,,880000.0,2018-10-11,
763,"Flat 31 Abingdon Mansions Pater Street, London, W8 6AB",Non-Newbuild,,Flat,,,Leasehold,,645000.0,2018-10-11,
764,"First And Second Floor Maisonette 15 Portobello Road, London, W11 3DA",Non-Newbuild,,Flat,,,Leasehold,,1870000.0,2018-10-11,
765,"72 Granville Road, Walthamstow, London, E17 9BT",Non-Newbuild,place,Terraced,0.6309999999999999,51.57771924,Freehold,-0.01554996,995000.0,2018-10-11,house
766,"Flat 11 Arden House, 107 Earls Court Road, London, W8 6QJ",Non-Newbuild,,Flat,,,Leasehold,,550000.0,2018-10-11,
